stop_id,stop_code,stop_name,stop_desc,stop_lat,stop_lon,zone_id,stop_url
1,1000,GARAGE,,33.528970000000001,-86.795180000000002,,
2,1001,CENTRAL STATION,,33.512099999999997,-86.808639999999997,,
4,1004,3RD AVE & 19TH ST,,33.515830000000001,-86.807699999999997,,
5,1005,3rd Ave and 21st St N,,33.517240000000001,-86.804749999999999,,
6,1006,2nd Ave N and 22nd St N,,33.516629999999999,-86.80386,,
7,1007,2nd Ave and 20th St N.,,33.51576,-86.805670000000006,,
8,1008,2ND AVE & 19TH ST,,33.51493,-86.807450000000003,,
9,1009,2nd Ave N and 18th St N,,33.513869999999997,-86.809629999999999,,
10,1010,2nd Ave N and 17th St,,33.51323,-86.810990000000004,,
11,1011,2nd Ave N and 16th St N,,33.512639999999998,-86.81223,,
12,1012,2nd Ave and 14th St N.,,33.511650000000003,-86.814329999999998,,
13,1013,2nd Ave and 12th St N.,,33.510370000000002,-86.816959999999995,,
14,1014,2nd Ave and 9th St N.,,33.508539999999996,-86.820859999999996,,
15,1015,2nd Ave and 6th Pl,,33.506399999999999,-86.82535,,
16,1016,2nd Ave N and 4th St N,,33.504950000000001,-86.828999999999994,,
17,1017,2nd Ave and 1st St N (Family Court),,33.50347,-86.832819999999998,,
18,1018,Tuscaloosa Ave and Center Street,,33.50271,-86.835579999999993,,
19,1019,Tuscaloosa Ave and 2nd St SW,,33.502189999999999,-86.837339999999998,,
20,1020,Tuscaloosa Ave and 4th St SW,,33.501629999999999,-86.839429999999993,,
21,1021,Tuscaloosa Ave and 6th St,,33.500210000000003,-86.842510000000004,,
22,1023,COTTON AVE & 7TH STREET SW,,33.498069999999998,-86.843140000000005,,
23,1025,Tuscaloosa Ave and 11th St SW,,33.494630000000001,-86.851389999999995,,
24,1026,Tuscaloosa Ave and 13th St SW,,33.49333,-86.853530000000006,,
25,1027,Tuscaloosa Ave and 14th St SW.,,33.492229999999999,-86.85521,,
26,1028,Tuscaloosa Ave & 15th St SW (OB),,33.491120000000002,-86.856920000000002,,
27,1029,Tuscaloosa Ave and 16th St W.,,33.488860000000003,-86.860479999999995,,
28,1030,17th St SW and Tuscaloosa Ave,,33.487220000000001,-86.862039999999993,,
29,1031,Pearson Ave and 17th Pl SW,,33.485430000000001,-86.864220000000003,,
30,1032,WESTEND ACADEMY,,33.483939999999997,-86.867180000000005,,
31,1033,Pearson Ave and 19th St SW.,,33.48312,-86.868700000000004,,
32,1034,Pearson Ave and 21st St SW.,,33.48151,-86.871560000000002,,
33,1035,Pearson Ave and 23rd Pl SW.,,33.480049999999999,-86.873670000000004,,
34,1036,Pearson Ave and 25th St SW,,33.478830000000002,-86.875249999999994,,
35,1037,Pearson Ave and 27th St SW .,,33.477170000000001,-86.877600000000001,,
36,1038,Pearson Ave and 29th St SW.,,33.475450000000002,-86.879760000000005,,
37,1039,Pearson Ave and 31st St SW,,33.473419999999997,-86.882329999999996,,
38,1040,31st St SW and Boise Ave,,33.46931,-86.883139999999997,,
39,1041,31st St SW and Jefferson Ave (Across fro,,33.466940000000001,-86.883170000000007,,
40,1042,Jefferson Ave and Aspen Ave,,33.463940000000001,-86.887739999999994,,
41,1043,Jefferson Ave and Fir Ave,,33.458460000000002,-86.893180000000001,,
42,1044,Jefferson Ave and Hickory Ave,,33.456209999999999,-86.895790000000005,,
43,1045,JEFFERSON AVE & 40TH ST,,33.452910000000003,-86.89855,,
44,1046,Jefferson Ave and 46th St,,33.448390000000003,-86.903760000000005,,
45,1047,Jefferson Ave and 50th St,,33.445099999999996,-86.907300000000006,,
46,1048,Jefferson Ave and 54th St,,33.441299999999998,-86.911100000000005,,
47,1049,Jefferson Ave and 55th St,,33.43835,-86.912570000000002,,
48,1050,Dartmouth and 35th St,,33.415649999999999,-86.930239999999998,,
49,1051,Dartmouth Ave and 33rd St,,33.413400000000003,-86.933000000000007,,
50,1052,Dartmouth Ave and 30th St.,,33.410310000000003,-86.935649999999995,,
51,1053,Dartmouth Ave and Carolina Terrace,,33.407989999999998,-86.937449999999998,,
52,1054,Dartmouth Ave and 25th St,,33.404800000000002,-86.939999999999998,,
53,1055,Dartmouth Ave and 22nd St,,33.401499999999999,-86.942599999999999,,
54,1056,Dartmouth Ave and 19th St,,33.39819,-86.945430000000002,,
55,1057,19th St and Clarendon Ave,,33.398800000000001,-86.946619999999996,,
56,1058,19th St and Arlington Ave,,33.400100000000002,-86.948949999999996,,
57,1059,19th St and 1st Ave N.Bessemer,,33.401409999999998,-86.95129,,
58,1060,19th St and 3rd Ave N. Bessemer,,33.4026,-86.953370000000007,,
59,1061,5TH AVE & 19TH ST-BESSEMER,,33.403750000000002,-86.955359999999999,,
60,1062,19th St and 7th Ave N. Bess,,33.405230000000003,-86.957989999999995,,
61,1063,19th St and 18th Ave (Jack's) PIPE SHOP,,33.412840000000003,-86.973110000000005,,
63,1065,WESTLAKE MALL,,33.39414,-86.971410000000006,,
64,1066,9th Ave and 18th St N.Bess,,33.405839999999998,-86.961740000000006,,
65,1067,9th Ave and 16th St N. Bess,,33.403700000000001,-86.963400000000007,,
66,1068,9th Ave and 12th St,,33.399009999999997,-86.967160000000007,,
67,1069,9th Ave and 10th St. N. Bess,,33.397109999999998,-86.968800000000002,,
68,1070,9th Ave and Somerset Blvd (West Town Pla,,33.389859999999999,-86.976690000000005,,
69,1071,9th Ave and Barclay Dr,,33.386719999999997,-86.980429999999998,,
70,1072,9th Ave and Parker Ave,,33.382680000000001,-86.983909999999995,,
71,1073,9th Ave and Memorial Dr (Lawson),,33.37424,-86.991100000000003,,
72,1074,9th Ave and Shiloh Ln (Lawson State Coll,,33.373010000000001,-86.992090000000005,,
73,1075,9th Ave and Bess Civic Center,,33.368830000000003,-86.996160000000003,,
74,1076,SOCIAL SECURITY BLDG,,33.364469999999997,-87.007859999999994,,
75,1077,WALMART - BESSEMER,,33.36195,-86.999849999999995,,
76,1078,9th Ave near Hampton Inn,,33.367759999999997,-86.997079999999997,,
77,1079,9th Ave and Medical Ctr Dr,,33.373939999999997,-86.990849999999995,,
78,1080,UAB MEDICAL CENTER WEST,,33.372140000000002,-86.989170000000001,,
79,1081,9th Ave and Parker Rd (IB),,33.382750000000001,-86.983429999999998,,
80,1082,9th Ave and Barclay Dr (IB),,33.386620000000001,-86.980109999999996,,
81,1083,9th Ave and 8th St,,33.393880000000003,-86.971329999999995,,
82,1084,9th Ave and 14th St,,33.401069999999997,-86.965320000000006,,
83,1085,18th Ave and 19th St Bessemer PIPE SHOP,,33.413049999999998,-86.972669999999994,,
84,1086,9th Ave and 18th St,,33.405299999999997,-86.961309999999997,,
85,1087,18th St & 7th Avenue Bessemer,,33.404159999999997,-86.959270000000004,,
86,1088,18th St and 6th Ave Bessemer,,33.403410000000001,-86.95796,,
87,1089,5TH AVE & 18TH ST- BESSEMER,,33.402670000000001,-86.956710000000001,,
88,1090,18th St & 2nd Ave Bessemer,,33.401000000000003,-86.953649999999996,,
89,1091,18th St and Carolina Ave,,33.400100000000002,-86.950519999999997,,
90,1092,19th St and Arlington Ave (IB),,33.400100000000002,-86.949250000000006,,
91,1093,Dartmouth Ave and 20th St,,33.398910000000001,-86.944730000000007,,
92,1094,Dartmouth and 22nd St (IB),,33.401159999999997,-86.942890000000006,,
93,1095,Dartmouth and 25th St (IB),,33.40448,-86.940219999999997,,
94,1096,Dartmouth and Carolina Terrace (IB),,33.407859999999999,-86.937449999999998,,
95,1097,Dartmouth Ave and 31st St.,,33.411270000000002,-86.934749999999994,,
96,1098,Dartmouth and 33rd St (IB),,33.413260000000001,-86.933220000000006,,
97,1099,Jefferson and 55th St (IB),,33.438070000000003,-86.912670000000006,,
98,1100,Jefferson and 54th St (IB),,33.440669999999997,-86.911410000000004,,
99,1101,Jefferson and 50th St (IB),,33.444879999999998,-86.907539999999997,,
100,1102,Jefferson Ave and 48th St,,33.446899999999999,-86.905299999999997,,
101,1103,Jefferson and 46th St (IB),,33.448279999999997,-86.903689999999997,,
102,1104,Jefferson and 40th St SW (IB),,33.452370000000002,-86.898790000000005,,
103,1105,Jefferson Ave SW & 39th St SW,,33.45364,-86.897890000000004,,
104,1106,Jefferson Ave and Hickory Ave,,33.455689999999997,-86.896159999999995,,
105,1107,Jefferson and Fir Ave (IB),,33.45825,-86.893240000000006,,
106,1108,Jefferson Ave and Birch Ave,,33.46078,-86.890884,,
107,1109,Jefferson and Aspen Ave (IB),,33.464019999999998,-86.887410000000003,,
108,1110,JEFFERSON AVE & 31ST ST,,33.466819999999998,-86.883139999999997,,
109,1111,31st St SW and Beulah Ave,,33.470610000000001,-86.883030000000005,,
110,1112,Pearson and 29th St,,33.475009999999997,-86.880129999999994,,
111,1113,Pearson and 27th St,,33.476880000000001,-86.877780000000001,,
112,1114,Pearson Ave and 24th St SW.,,33.479050000000001,-86.874780000000001,,
113,1115,Pearson and 21st St,,33.481769999999997,-86.870959999999997,,
114,1116,Pearson and 19th St,,33.482939999999999,-86.868809999999996,,
115,1117,PEARSON AVE and 18TH PL SW. (WESTEND ACA,,33.48395,-86.866780000000006,,
116,1118,Pearson Ave and Tuscaloosa Ave,,33.48715,-86.861959999999996,,
117,1119,Tuscaloosa Ave and 16th Pl SW.,,33.489109999999997,-86.859949999999998,,
118,1120,Tuscaloosa Ave and 15th Pl SW.,,33.490070000000003,-86.858339999999998,,
119,1121,Tuscaloosa Ave and 15th St SW.,,33.490940000000002,-86.856989999999996,,
120,1122,Tuscaloosa and 13th St SW (IB),,33.493229999999997,-86.853369999999998,,
121,1123,Tuscaloosa Ave and 12th St SW,,33.494439999999997,-86.851519999999994,,
122,1126,Tuscaloosa and 6th St,,33.499929999999999,-86.842650000000006,,
123,1127,Tuscaloosa Ave and 5th St,,33.501249999999999,-86.840900000000005,,
124,1128,Tuscaloosa and 4th St,,33.501510000000003,-86.83981,,
125,1129,Tuscaloosa Ave and 3rd St SW,,33.501809999999999,-86.838329999999999,,
126,1130,Tuscaloosa and Center St,,33.50253,-86.835430000000002,,
127,1131,2nd Ave N and 1st St N (Family Court),,33.5032,-86.832949999999997,,
128,1132,2nd Ave N and 4th St,,33.504869999999997,-86.829009999999997,,
129,1133,2nd Ave and 5th St N.,,33.505690000000001,-86.827070000000006,,
130,1134,3rd Ave N and 8th St,,33.508330000000001,-86.823419999999999,,
131,1135,3rd Ave N and 9th St,,33.509010000000004,-86.822069999999997,,
132,1136,3rd Ave N and 12th St,,33.510869999999997,-86.818119999999993,,
133,1137,3rd Ave N and 14th St,,33.512169999999998,-86.815359999999998,,
134,1138,3rd Ave N & 16th St N,,33.513759999999998,-86.812060000000002,,
135,1139,3rd Ave N and 17th St N,,33.514090000000003,-86.811099999999996,,
136,1140,Tuscaloosa and 14th St SW,,33.491610000000001,-86.854889999999997,,
137,1141,Pearson Ave and 14th Pl SW,,33.489559999999997,-86.854569999999995,,
138,1142,Pearson Ave and 15th Pl SW,,33.487349999999999,-86.856300000000005,,
139,1143,Jefferson Ave & 16th Way,,33.48404,-86.858029999999999,,
140,1144,Jefferson Ave and 17th Pl SW,,33.481630000000003,-86.859719999999996,,
141,1145,Jefferson Ave and 17th Way SW,,33.479959999999998,-86.862710000000007,,
142,1146,Jefferson Ave and 18th St SW,,33.478549999999998,-86.865719999999996,,
143,1147,JEFFERSON AVE & 18TH WAY,,33.477060000000002,-86.8673,,
144,1148,18th Way SW and Lincoln Ave,,33.474629999999998,-86.867279999999994,,
145,1149,Grant Ave and 18th St SW,,33.471209999999999,-86.867220000000003,,
146,1150,Mayfield Ave and 19th St SW,,33.469589999999997,-86.869759999999999,,
147,1151,Mayfield Ave and 21st St SW,,33.469610000000003,-86.870980000000003,,
148,1152,24th St SW and Powderly Ave,,33.468789999999998,-86.87433,,
149,1153,Brookhaven Ave and 24th St SW,,33.467939999999999,-86.874650000000003,,
150,1154,Brookhaven Ave and 28th St SW,,33.468029999999999,-86.878829999999994,,
151,1155,Snavely Ave and 31st St,,33.467219999999998,-86.8827,,
152,1156,31st St and Jefferson,,33.466200000000001,-86.883030000000005,,
153,1157,31st St and Park Ave,,33.465870000000002,-86.88306,,
154,1158,31st St SW and Aspen Ave,,33.46416,-86.883039999999994,,
155,1159,31st St and Balsam Ave,,33.46031,-86.882990000000007,,
156,1160,31st St SW & Cedar Ave,,33.45767,-86.882930000000002,,
157,1161,31st St SW and SJ Bennett Dr,,33.454520000000002,-86.883780000000002,,
158,1162,Wilson Rd and Oak Ave,,33.453099999999999,-86.885069999999999,,
159,1163,31st St SW and Oak Dr (Wenonah High Scho,,33.450490000000002,-86.886219999999994,,
160,1164,Wilson Rd and 33rd St SW,,33.44905,-86.887029999999996,,
161,1165,Wenonah Dr and Wenonah Park Pl,,33.448920000000001,-86.885120000000001,,
162,1166,Wenohah Dr and Wenonah Park Rd,,33.448770000000003,-86.883250000000004,,
163,1167,Wenonah Dr and Goldcrest Dr,,33.448790000000002,-86.881280000000004,,
164,1168,Wenohah Rd and Ishkooda-Wenonah Rd,,33.448059999999998,-86.879930000000002,,
169,1173,Ishkooda-Wenonah Rd and Wilson Rd,,33.442329999999998,-86.890100000000004,,
170,1174,Wilson Rd and Willard Ave,,33.443159999999999,-86.890870000000007,,
171,1175,Wilson Rd and Todd Ave,,33.444029999999998,-86.891009999999994,,
172,1176,Wilson Rd and Grasselli Ave,,33.445889999999999,-86.890199999999993,,
173,1177,WILSON & HOWARD,,33.446739999999998,-86.889930000000007,,
174,1178,Wilson Rd and 33rd St,,33.449570000000001,-86.887469999999993,,
175,1179,Wilson Rd and Ethel Hall Circle,,33.45196,-86.885350000000003,,
176,1180,Wilson Rd and SJ Bennett Dr (IB),,33.454439999999998,-86.883669999999995,,
177,1181,31st St and Cedar Ave (IB),,33.457909999999998,-86.882769999999994,,
178,1182,31st St and Balsam Ave SW (IB),,33.459989999999998,-86.882819999999995,,
179,1183,31st St SW & Dowell Ave,,33.464840000000002,-86.882829999999998,,
180,1184,31st St SW and Jefferson Ave (RTE 3),,33.466760000000001,-86.882890000000003,,
181,1185,Brookhaven and 28th,,33.467979999999997,-86.878420000000006,,
182,1186,Brookhaven Ave and 24th St (IB),,33.467889999999997,-86.874380000000002,,
183,1187,Mayfield Ave and 21st St SW,,33.469520000000003,-86.871250000000003,,
184,1188,Mayfield Ave and 20th St SW,,33.46951,-86.87039,,
185,1189,18th Way SW and Grant Ave,,33.471069999999997,-86.86739,,
186,1190,18th Way and Lincoln Ave (IB),,33.47448,-86.867180000000005,,
187,1191,18th Way SW and Jefferson Ave,,33.477710000000002,-86.867199999999997,,
188,1192,Jefferson Ave 18th St (IB),,33.478639999999999,-86.865229999999997,,
189,1193,Jefferson Ave & 17th Way (IB),,33.47974,-86.862780000000001,,
190,1194,Jefferson Ave & 17th Pl (IB),,33.481650000000002,-86.859520000000003,,
191,1195,Pearson Ave and 15th Way SW,,33.486310000000003,-86.856780000000001,,
192,1196,Pearson Ave and Cleveland Ave,,33.487360000000002,-86.856189999999998,,
193,1197,14th St SW and Cotton Ave,,33.49109,-86.854259999999996,,
194,1198,3RD AVE W & 12TH ST,,33.505240000000001,-86.856840000000005,,
201,1206,Ensley Ave and 20th St (Jet Pep),,33.509529999999998,-86.886979999999994,,
202,1207,20th St and Ave O,,33.509639999999997,-86.890240000000006,,
203,1208,20th St and Ave I,,33.509990000000002,-86.893240000000006,,
204,1209,20th St and Ave G,,33.511110000000002,-86.895349999999993,,
206,1211,Ave F and 24th St Ensley,,33.508420000000001,-86.899100000000004,,
207,1212,Ave E and 25th St,,33.508049999999997,-86.900720000000007,,
208,1213,Ave E and 26th St,,33.507370000000002,-86.901539999999997,,
209,1214,Ave E and 28th St,,33.505679999999998,-86.902850000000001,,
210,1215,Ave E and 30th St,,33.504069999999999,-86.904139999999998,,
211,1216,Ave E nearside 32nd St,,33.502189999999999,-86.905609999999996,,
212,1217,Ave E and 34th St,,33.500720000000001,-86.906750000000002,,
213,1218,Ave E and 35th St,,33.499859999999998,-86.907470000000004,,
214,1219,36th St and Ave D,,33.499670000000002,-86.909400000000005,,
215,1220,10th Ave and Buffalo St,,33.503079999999997,-86.914680000000004,,
216,1221,Albany St and 9th Ave,,33.50394,-86.913589999999999,,
218,1223,7th Ave and Erie St,,33.505690000000001,-86.917649999999995,,
219,1224,7th Ave and Huron St,,33.505719999999997,-86.921210000000002,,
220,1225,7th Ave and Indiana St,,33.505940000000002,-86.922079999999994,,
235,1240,Ave E and 34th St (IB),,33.500410000000002,-86.906850000000006,,
237,1242,Ave E and 32nd St (IB),,33.502110000000002,-86.905479999999997,,
240,1245,Ave E and 25th St,,33.508009999999999,-86.900829999999999,,
241,1246,Ave F and 24th St (IB),,33.508240000000001,-86.899069999999995,,
251,1256,Ensley Ave and Ave J,,33.50947,-86.892619999999994,,
252,1257,Ensley Ave and Ave O,,33.509419999999999,-86.890630000000002,,
258,1263,Bessemer Rd and Ensley Ave (Shelter),,33.497309999999999,-86.875889999999998,,
259,1264,3RD AVE & 12TH ST,,33.505070000000003,-86.857280000000003,,
260,1265,1ST AVE & 19TH ST,,33.513770000000001,-86.806579999999997,,
261,1266,1st Ave N and 20th St N,,33.514530000000001,-86.805250000000001,,
262,1267,2nd Ave N and R Arrington Jr Blvd,,33.516269999999999,-86.804950000000005,,
263,1268,4th Ave and 20th St N,,33.517580000000002,-86.806889999999996,,
264,1269,4TH AVE & 19TH ST,,33.51614,-86.809929999999994,,
265,1270,4th Ave N and 18th St N,,33.516190000000002,-86.810559999999995,,
266,1271,6th Ave N and 16th St N,,33.516469999999998,-86.814940000000007,,
267,1272,6th Ave N and 14th St N,,33.515430000000002,-86.817170000000004,,
268,1273,7th Ave N and 14th St,,33.516739999999999,-86.818160000000006,,
269,1274,14th St N and 8th Ave N (Social Security,,33.517090000000003,-86.820080000000004,,
270,1275,8th Ave and 12th St N,,33.516440000000003,-86.821430000000007,,
271,1276,8th Ave N and 9th St N,,33.514490000000002,-86.825569999999999,,
272,1277,8th Ave and 5th St N,,33.513959999999997,-86.828159999999997,,
273,1278,8th Ave and 4th St N,,33.513979999999997,-86.82987,,
274,1279,8th Ave and 3rd St N,,33.514069999999997,-86.831729999999993,,
275,1280,8th Ave N and 1st St N,,33.514060000000001,-86.834410000000005,,
276,1281,8TH AVE & CENTER ST,,33.514069999999997,-86.83605,,
277,1282,Center St and 9th Ct W,,33.516820000000003,-86.836430000000007,,
278,1283,9th Ct and 3rd St W,,33.516860000000001,-86.840720000000005,,
279,1284,9th Ct and 4th St W,,33.516919999999999,-86.842349999999996,,
280,1285,9th Ct and 5th St W,,33.51688,-86.843990000000005,,
281,1286,9th Ave and 5th Pl W,,33.516060000000003,-86.845140000000001,,
282,1287,9th Ave and 6th St W,,33.516010000000001,-86.846199999999996,,
283,1288,9th Ave and 7th St W,,33.516019999999997,-86.847290000000001,,
284,1289,9th Ave and Arkadelphia Rd,,33.516039999999997,-86.849819999999994,,
285,1290,Arkadelphia Rd and 9th Ct W,,33.517130000000002,-86.850149999999999,,
286,1291,Arkadelphia Rd and 11th Ct W (Shell Stat,,33.522829999999999,-86.849419999999995,,
290,1296,2nd St W and Hwy 78 (Gas Station),,33.53302,-86.857680000000002,,
291,1297,Cherry Ave and Castleberry Way,,33.543579999999999,-86.871160000000003,,
293,1299,Southbrook Lane and Nelems St,,33.547049999999999,-86.870360000000005,,
294,1300,Cherry Ave nearside Tribly St,,33.541759999999996,-86.871300000000005,,
295,1301,Hibernian St and Hwy 78 (Scott School),,33.540790000000001,-86.871769999999998,,
296,1302,Hibernian St and Beech Ave,,33.540730000000003,-86.872839999999997,,
297,1303,Hibernian St and Mildred Ave,,33.540759999999999,-86.874319999999997,,
298,1304,Hibernian St and Church Ave,,33.540790000000001,-86.876959999999997,,
299,1305,Hibernian St and Dugan Rd,,33.540869999999998,-86.878990000000002,,
300,1306,Dugan Ave and Ave W,,33.538449999999997,-86.879170000000002,,
301,1307,PRATT CITY 2ND AVE & AVE W,,33.535269999999997,-86.87903,,
302,1308,Carline Ave and Ave U,,33.534680000000002,-86.880610000000004,,
303,1309,Carline Ave and Ave T (3rd St Pratt),,33.533670000000001,-86.881749999999997,,
304,1310,Carline Ave and Ave G,,33.532269999999997,-86.883309999999994,,
305,1311,Carline Ave and 4th St,,33.531260000000003,-86.884450000000001,,
306,1312,Carline Ave and 5th St,,33.530259999999998,-86.885090000000005,,
307,1313,Ave F and 5th Pl,,33.529179999999997,-86.885149999999996,,
308,1314,Ave F and 6th St,,33.527380000000001,-86.885170000000002,,
309,1315,Ave F and 6th Pl,,33.526420000000002,-86.885199999999998,,
310,1316,Ave F and 8th St,,33.524439999999998,-86.886570000000006,,
311,1317,Ave F and 9th St,,33.523310000000002,-86.887410000000003,,
312,1318,Ave F and 10th St,,33.522260000000003,-86.888239999999996,,
313,1319,Ave F and 12th St (Jackson-Olin High Sch,,33.520420000000001,-86.889759999999995,,
314,1320,Ave F and 14th St,,33.51699,-86.892380000000003,,
315,1321,Ave F and 15th St,,33.516129999999997,-86.893090000000001,,
316,1322,Ave F and 17th St,,33.514389999999999,-86.894419999999997,,
317,1323,ENSLEY AVE F & 18TH ST,,33.51352,-86.895129999999995,,
318,1324,18th St and Ave E (IB),,33.513849999999998,-86.896029999999996,,
319,1325,18th St and Ave F,,33.513550000000002,-86.894930000000002,,
320,1326,Ave F and 17th St (IB),,33.514209999999999,-86.894379999999998,,
321,1327,Ave F and 15th St (IB),,33.515900000000002,-86.893090000000001,,
322,1328,Ave F and 13th St,,33.517789999999998,-86.891670000000005,,
323,1329,Ave F and 12th St,,33.518810000000002,-86.890799999999999,,
324,1330,Ave F and 10th St (IB),,33.522089999999999,-86.888289999999998,,
325,1331,Ave F and 9th St,,33.523380000000003,-86.887209999999996,,
326,1332,Ave F and 8th St (IB),,33.5242,-86.886600000000001,,
327,1333,Ave F and 6th Pl (IB),,33.526209999999999,-86.885130000000004,,
328,1334,Ave F and 5th Way,,33.528129999999997,-86.885080000000002,,
329,1335,Ave F and 5th St,,33.529949999999999,-86.885090000000005,,
330,1336,Carline Ave and 4th St (IB),,33.531030000000001,-86.884460000000004,,
331,1337,Carline Ave and Ave G (IB),,33.531910000000003,-86.88364,,
332,1338,Carline Ave and Ave T (IB),,33.533180000000002,-86.882220000000004,,
333,1339,Carline Ave and Ave U (IB),,33.534590000000001,-86.880579999999995,,
334,1340,2nd St and Ave W,,33.534979999999997,-86.879249999999999,,
335,1341,Ave W and 1st St,,33.535960000000003,-86.878789999999995,,
336,1342,Ave W and Dugan Ave,,33.538139999999999,-86.87903,,
337,1343,Hibernian St and Lacey Rd,,33.540759999999999,-86.877849999999995,,
338,1344,Hibernian St and Miles Ave,,33.540689999999998,-86.873490000000004,,
339,1345,Hibernian St and Hwy 78,,33.540660000000003,-86.871809999999996,,
340,1346,Hwy 78 and 2nd St,,33.532490000000003,-86.857399999999998,,
341,1347,2nd St and 16th Ave W,,33.531689999999998,-86.858639999999994,,
342,1348,16th Ave W Near 1105 Address,,33.529400000000003,-86.856059999999999,,
343,1349,16th Ave and 10th St W (IB),,33.527929999999998,-86.852930000000001,,
344,1350,Arkadelphia Rd and 12th Ave,,33.523899999999998,-86.849890000000002,,
345,1351,Arkadelphia Rd and Hilltop Pkwy,,33.518000000000001,-86.850589999999997,,
346,1352,Arkadelphia Rd and 9th Ave,,33.51596,-86.849720000000005,,
347,1353,9th Ave and 7th St W (IB),,33.515920000000001,-86.847459999999998,,
348,1354,9th Ave and 5th Pl W (IB),,33.515929999999997,-86.845320000000001,,
349,1355,9th Court and 4th St W (IB),,33.516820000000003,-86.842609999999993,,
350,1356,9th Court and 3th St W (IB),,33.516759999999998,-86.84093,,
351,1357,9th Ct and 2nd St W,,33.516719999999999,-86.839449999999999,,
352,1358,9th Ct and Center St,,33.5167,-86.836359999999999,,
353,1359,8th Ave and 1st St N (IB),,33.513919999999999,-86.834739999999996,,
354,1360,8th Ave and 2nd St N,,33.5139,-86.833240000000004,,
355,1361,8th Ave and 3rd St N (IB),,33.513829999999999,-86.831639999999993,,
356,1362,8th Ave and 4th St N (IB),,33.513820000000003,-86.829970000000003,,
357,1363,8th Ave and 5th St N (IB),,33.513820000000003,-86.828450000000004,,
358,1364,8th Ave and 10th St N,,33.51484,-86.824389999999994,,
359,1365,8th Ave N and 12th St,,33.516109999999998,-86.821680000000001,,
360,1366,7th Ave N and 13th St,,33.515860000000004,-86.819090000000003,,
361,1367,7th Ave N and 14th St,,33.516289999999998,-86.818129999999996,,
362,1368,7th Ave N and 15th St,,33.516919999999999,-86.816770000000005,,
363,1369,7th Ave N and 16th St,,33.517620000000001,-86.815370000000001,,
364,1370,16th St and 6th Ave N,,33.516080000000002,-86.814300000000003,,
365,1371,17th St N and 4th Ave N,,33.51493,-86.811729999999997,,
366,1372,18th St and Morris Ave,,33.512120000000003,-86.807990000000004,,
367,1373,18th St S and 1st Ave S,,33.510559999999998,-86.806970000000007,,
368,1374,18th St S and 2nd Ave S,,33.509279999999997,-86.806079999999994,,
369,1375,18th St S and 4th Ave S,,33.50779,-86.805049999999994,,
370,1376,18th St S and 5th Ave S,,33.506509999999999,-86.804169999999999,,
371,1377,6th Ave S and 17th St,,33.505070000000003,-86.804879999999997,,
372,1378,6th Ave S and 16th St S,,33.504530000000003,-86.806139999999999,,
373,1379,6th Ave S and 15th St S,,33.503860000000003,-86.807519999999997,,
374,1380,6th Ave S and 14th St S,,33.503190000000004,-86.808869999999999,,
375,1381,6TH AVE SO & 12TH ST,,33.501869999999997,-86.81165,,
376,1382,6th Ave S and 8th St S,,33.499339999999997,-86.817009999999996,,
377,1383,6th Ave S Near Memorial Park,,33.497320000000002,-86.821209999999994,,
378,1384,6th Ave S and Beta St,,33.496409999999997,-86.823139999999995,,
379,1385,6th Ave S and Omega St,,33.494970000000002,-86.826149999999998,,
380,1386,6th Ave S and 1st St S,,33.494109999999999,-86.827979999999997,,
405,1412,6th Ave S and Omega St (IB),,33.49492,-86.825850000000003,,
406,1413,6th Ave S and Delta St,,33.49539,-86.824830000000006,,
407,1414,6th Ave S and Beta St (IB),,33.496250000000003,-86.823089999999993,,
408,1415,6th Ave S and 6th St S,,33.497700000000002,-86.819980000000001,,
409,1416,6th Ave S and 8th St (IB),,33.49897,-86.81729,,
410,1417,6th Ave S and 12th St (IB),,33.501629999999999,-86.81183,,
411,1418,6th Ave S and 13th St S,,33.50224,-86.810479999999998,,
412,1419,6th Ave S and 14th St (IB),,33.502879999999998,-86.809110000000004,,
413,1420,6th Ave S and 15th St (IB),,33.50356,-86.807689999999994,,
414,1421,6th Ave S and 17th St (IB),,33.505139999999997,-86.804360000000003,,
415,1422,6th Ave S and 18th St,,33.506489999999999,-86.803939999999997,,
416,1423,18th St and 4th Ave,,33.507530000000003,-86.804640000000006,,
417,1424,18th St and 1st Ave,,33.510860000000001,-86.806880000000007,,
418,1425,18th St & 3rd Ave No,,33.5152,-86.809899999999999,,
419,1426,5th Ave & 20th St No,,33.518140000000002,-86.808009999999996,,
420,1427,5TH AVE & 22ND ST,,33.519170000000003,-86.80583,,
421,1428,22nd St N and 4th Ave N,,33.518120000000003,-86.804569999999998,,
422,1429,22nd St & 2nd Ave No,,33.516500000000001,-86.8035,,
423,1430,20th St & Morris Ave,,33.5139,-86.805430000000001,,
424,1431,20th St S and 1st Ave S,,33.511499999999998,-86.803820000000002,,
425,1432,20th St S and 4th Ave S,,33.5092,-86.802269999999993,,
426,1433,20th St S and 5th Ave S,,33.508369999999999,-86.801640000000006,,
427,1434,UAB AND KIRKLIN CLINIC,,33.506500000000003,-86.800380000000004,,
428,1435,20th St S and 7th Ave S,,33.505459999999999,-86.799800000000005,,
429,1436,20th St & University Blvd,,33.504199999999997,-86.798860000000005,,
430,1437,FIVE POINTS SOUTH,,33.501750000000001,-86.797210000000007,,
431,1438,HIGHLAND & 21ST ST,,33.500720000000001,-86.790080000000003,,
435,1442,Highland Ave & Highland Court,,33.504620000000003,-86.784580000000005,,
436,1443,Highland Ave & 30th Pl,,33.506180000000001,-86.782129999999995,,
437,1444,Highland Ave and Cliff Rd,,33.506239999999998,-86.779210000000006,,
438,1445,31st St S and Claimont Ave,,33.511620000000001,-86.782939999999996,,
439,1446,Clairmont Ave & Highland Ave,,33.51276,-86.779989999999998,,
440,1447,NEW PILGRIM TOWERS,,33.515270000000001,-86.780230000000003,,
441,1448,Clairmont Ave and 38th St So,,33.514719999999997,-86.774760000000001,,
453,1460,Highland Ave & Piggly Wiggly,,33.512819999999998,-86.78004,,
454,1461,31st St S and Highland Ave,,33.511479999999999,-86.782989999999998,,
456,1463,Highland Ave & 29th St,,33.506320000000002,-86.781809999999993,,
457,1464,Highland Ave & 27th Place So,,33.504199999999997,-86.783289999999994,,
458,1465,HIGHLAND AVE & 26TH ST,,33.503190000000004,-86.785809999999998,,
461,1468,20TH ST & 11 AVE SO,,33.500410000000002,-86.796040000000005,,
462,1469,20th St S and 10th Ave S (IB),,33.502650000000003,-86.797539999999998,,
463,1470,20th St S and University Blvd,,33.50459,-86.798940000000002,,
464,1471,20th St S and 6th Ave S,,33.50732,-86.800700000000006,,
465,1472,20th St S and 4th Ave S,,33.508989999999997,-86.801829999999995,,
466,1473,20th St & Powell Ave,,33.512160000000002,-86.803979999999996,,
467,1474,20th St S and Morris Ave (IB),,33.5137,-86.805059999999997,,
468,1475,1st Ave N and 19th St N,,33.513730000000002,-86.80744,,
469,1476,20th St S and Powell Ave (outbound),,33.512509999999999,-86.804479999999998,,
470,1477,11th Ave S and 19th St S,,33.500059999999998,-86.797600000000003,,
471,1478,18th St S and 11th Ave S,,33.499409999999997,-86.799040000000005,,
472,1479,16th St S and 11th Ave S,,33.497889999999998,-86.802149999999997,,
473,1480,15th St S and 11th Ave S,,33.496870000000001,-86.803560000000004,,
474,1481,15th St S and 14th Ave S,,33.494289999999999,-86.802449999999993,,
475,1482,15th St and 15th Ave S,,33.49288,-86.801950000000005,,
476,1483,15th St S and 16th Ave S,,33.491799999999998,-86.801490000000001,,
477,1484,16th Ave S and 13th Pl,,33.491570000000003,-86.804770000000005,,
478,1485,16th Ave S and 13th St,,33.49118,-86.805850000000007,,
479,1486,16th Ave S and 12th St,,33.491190000000003,-86.806960000000004,,
480,1487,12TH AVE & 14TH PL,,33.493049999999997,-86.807310000000001,,
481,1488,14th Ave S and 11th Pl,,33.49306,-86.809139999999999,,
482,1489,14th Ave S and 10th St,,33.493139999999997,-86.813379999999995,,
483,1490,IDLEWILD CIRCLE,,33.490340000000003,-86.814729999999997,,
484,1491,Idlewild Cir and 6th St S,,33.48856,-86.815860000000001,,
485,1492,19th Terrace and Greensprings Ave,,33.485230000000001,-86.816130000000001,,
486,1493,Greensprings Ave and 4th Pl,,33.48489,-86.818280000000001,,
487,1494,Greensprings Hwy and 21st Ave S,,33.482309999999998,-86.823670000000007,,
488,1495,Greensprings Hwy and Goodwill,,33.478679999999997,-86.825299999999999,,
489,1496,Greensprings Hwy and 24th Ave S,,33.477649999999997,-86.825720000000004,,
490,1497,Greensprings Hwy and O'Reilly Auto Parts,,33.473579999999998,-86.826070000000001,,
491,1498,Valley Ave and Beacon Pkwy E,,33.472679999999997,-86.821510000000004,,
492,1499,Beacon Pkwy E and TASC,,33.47495,-86.823549999999997,,
493,1500,Beacon Pkwy E and Beacon Pkwy W,,33.477330000000002,-86.818219999999997,,
494,1501,Beacon Pkwy E and Valley Ave,,33.475409999999997,-86.816299999999998,,
495,1502,Palisades Blvd and Palisades Dr,,33.47137,-86.81617,,
497,1504,Oxmoor Rd  and Greensprings Hwy,,33.465119999999999,-86.82235,,
498,1505,Oxmoor Rd and Scott St,,33.461599999999997,-86.828329999999994,,
499,1506,Oxmoor Rd and Edgeknoll St,,33.45899,-86.832890000000006,,
500,1507,OXMOOR ROAD & BARBER COURT,,33.458840000000002,-86.838759999999994,,
502,1509,West Valley Ave and Robert Jemison Dr,,33.465069999999997,-86.837419999999995,,
503,1511,Bagby Drive and Goodwin Crest Dr,,33.470910000000003,-86.831050000000005,,
504,1512,Goodwin Crest Bldg,,33.471719999999998,-86.833510000000004,,
505,1513,Goodwin Crest Dr and Bagby Dr,,33.470750000000002,-86.831180000000003,,
506,1514,Bagby Dr and West Valley Ave,,33.469009999999997,-86.829719999999995,,
507,1515,Valley Ave & Greensprings Hwy,,33.470329999999997,-86.825919999999996,,
508,1516,Palisades Blvd near Speedy Cash,,33.468060000000001,-86.819460000000007,,
511,1519,Beacon Pkwy W and Valley Ave,,33.475650000000002,-86.816410000000005,,
512,1520,Beacon Pkwy E and Beacon Pkwy W,,33.477440000000001,-86.818389999999994,,
513,1521,Beacon Pkwy and 500 Address,,33.474969999999999,-86.823790000000002,,
515,1523,Beacon Pkwy E and 200 Address,,33.47298,-86.822050000000004,,
517,1525,Valley Ave and Greensprings Hwy,,33.47148,-86.824460000000002,,
518,1526,Greensprings Hwy and Goodwill (IB),,33.47878,-86.824870000000004,,
519,1527,Greensprings Hwy and 21st Ave (IB),,33.482370000000003,-86.823319999999995,,
520,1528,Greensprings Ave and 4th Place (IB),,33.484839999999998,-86.818190000000001,,
521,1529,Greensprings Ave and 19th Terr S,,33.485149999999997,-86.816090000000003,,
522,1530,6th St S and Idlewild Cir,,33.488370000000003,-86.815969999999993,,
523,1531,IDLEWILD CIRCLE (IB),,33.490479999999998,-86.814639999999997,,
524,1532,10th St S and 14th Ave S,,33.49297,-86.81344,,
525,1533,14th Ave and 11th Street,,33.49295,-86.810749999999999,,
526,1534,11th Place and 14th Ave,,33.49297,-86.809380000000004,,
527,1535,14th Ave S and 12th St,,33.492939999999997,-86.807140000000004,,
528,1536,12th St S and 16th Ave S,,33.491309999999999,-86.807090000000002,,
529,1537,16th Ave S and 13th St S,,33.491050000000001,-86.806030000000007,,
530,1538,16th Ave S and 15th St,,33.49165,-86.801370000000006,,
531,1539,15th St S and 15th Ave,,33.492989999999999,-86.801850000000002,,
532,1540,15th St S and 14th Ave,,33.493949999999998,-86.802229999999994,,
533,1541,15th St S and 11th Ave,,33.496989999999997,-86.803439999999995,,
534,1542,4th Ave S and R Arrington Jr Blvd,,33.509590000000003,-86.800730000000001,,
535,1543,4th Ave S and 23rd St S,,33.511240000000001,-86.797319999999999,,
536,1544,4th Ave S and 27th St S,,33.512869999999999,-86.793890000000005,,
537,1545,4th Ave S and 29th St S,,33.515039999999999,-86.789339999999996,,
538,1546,4th Ave S and 32nd St S,,33.516629999999999,-86.785929999999993,,
539,1547,4th Ave S and 33rd St,,33.51764,-86.783820000000006,,
540,1548,4th Ave S and 34th St S,,33.518090000000001,-86.782889999999995,,
541,1549,3rd Ave S and 36th St S,,33.519939999999998,-86.780270000000002,,
542,1550,3rd Ave S and 38th St,,33.521529999999998,-86.778049999999993,,
543,1551,3rd Ave S and 39th St,,33.52223,-86.776679999999999,,
544,1552,3rd Ave S and 41st St,,33.523409999999998,-86.774249999999995,,
545,1553,3rd Ave S and 42nd St S,,33.524189999999997,-86.772570000000002,,
546,1554,3rd Ave S near Workshops Inc,,33.525080000000003,-86.770619999999994,,
547,1555,3RD AVE SO & 43RD ST,,33.525660000000002,-86.769440000000003,,
548,1556,3rd Ave S and 44th St S,,33.526119999999999,-86.767939999999996,,
549,1557,3rd Ave S and 5th Ave S,,33.526229999999998,-86.765370000000004,,
550,1558,3rd Ave S and 47th St S,,33.527160000000002,-86.762100000000004,,
551,1559,5th Ave S and 48th St,,33.528889999999997,-86.759919999999994,,
552,1560,5th Ave S and 50th St,,33.530970000000003,-86.757840000000002,,
553,1561,5th Ave S and 53rd St,,33.534782999999997,-86.754339999999999,,
554,1562,1st Ave S and 55th St,,33.538220000000003,-86.75188,,
555,1563,1st Ave S and 57th St,,33.541040000000002,-86.749719999999996,,
556,1564,Georgia Rd and 59th St,,33.54157,-86.748480000000001,,
557,1565,Georgia Rd and 59th Way,,33.541789999999999,-86.745279999999994,,
558,1566,Georgia Rd and 63rd St,,33.54186,-86.740179999999995,,
559,1567,Georgia Rd and 64th Pl,,33.541939999999997,-86.738609999999994,,
560,1568,Georgia Rd and Brussels Ave,,33.542299999999997,-86.735399999999998,,
561,1569,Georgia Rd and Gate City Elemen School,,33.541780000000003,-86.733239999999995,,
562,1570,Georgia Rd and Glasglow Ave,,33.541339999999998,-86.728819999999999,,
563,1571,Georgia Rd and Havre Ave,,33.541249999999998,-86.727680000000007,,
569,1577,London Ave and 73rd St,,33.551250000000003,-86.722080000000005,,
570,1578,Oporto Madrid Blvd and 73rd St,,33.551279999999998,-86.720870000000005,,
571,1579,Oporto Madrid Blvd and 66th St,,33.542900000000003,-86.720680000000002,,
572,1580,Oporto Madrid Blvd and Sunrise Dr,,33.537799999999997,-86.719679999999997,,
573,1581,Oporto Madrid Blvd near Pizza Hut,,33.529029999999999,-86.722127999999998,,
574,1582,Oporto Madrid and Cooper Hill Rd,,33.526060000000001,-86.723770000000002,,
575,1583,Montclair Rd and Oporto Way,,33.52516,-86.72251,,
577,1585,Montevallo Rd and Comfort Inn,,33.529350000000001,-86.715440000000001,,
578,1586,Montevallo Rd and Crestwood Blvd,,33.530999999999999,-86.716369999999998,,
579,1587,Crestwood Blvd and Fredrick St,,33.530900000000003,-86.718279999999993,,
580,1588,Crestwood Blvd nearside Oporto Madrid Bl,,33.530439999999999,-86.723550000000003,,
581,1589,Crestwood Blvd and Cresthill Rd,,33.530099999999997,-86.726230000000001,,
582,1590,Crestwood Blvd near Eastwood Festival,,33.530549999999998,-86.729479999999995,,
583,1591,Crestwood Blvd and William Mathews Rd,,33.532350000000001,-86.735680000000002,,
584,1592,Crestwood Blvd and Crest Green Rd,,33.53145,-86.738799999999998,,
585,1593,Crest Green Rd and Green Crest Dr,,33.532470000000004,-86.738569999999996,,
586,1594,Crest Green Rd and Crest Valley Way,,33.533090000000001,-86.737030000000004,,
587,1595,Crest Green Rd and Dublin Ave,,33.534579999999998,-86.733760000000004,,
588,1596,Dublin Ave and 6th Court S,,33.536450000000002,-86.733630000000005,,
589,1597,Brussels Ave and 6th Ave S,,33.537559999999999,-86.735770000000002,,
590,1598,Brussels Ave and Chester Ave,,33.540149999999997,-86.733750000000001,,
591,1599,BRUSSELS CIRCLE & DUBLIN,,33.539230000000003,-86.732320000000001,,
592,1600,664 Brussels Circle and Chester Ave,,33.539020000000001,-86.734380000000002,,
593,1601,Brussels Ave and 6th Ave S,,33.538130000000002,-86.735900000000001,,
594,1602,Dublin Ave and Crest Green Rd,,33.534590000000001,-86.733789999999999,,
595,1603,Crest Green and Crest Valley Way (IB),,33.533180000000002,-86.736959999999996,,
596,1604,Crestwood and W. Mathews Rd,,33.532179999999997,-86.735330000000005,,
597,1605,EASTWOOD FESTIVAL,,33.528489999999998,-86.729910000000004,,
598,1606,Crestwood Blvd and Aaron's,,33.529910000000001,-86.72569,,
599,1607,EASTWOOD WALMART,,33.528779999999998,-86.718810000000005,,
600,1608,Oporto Madrid Blvd and Sunrise Dr,,33.536859999999997,-86.719440000000006,,
601,1609,Oporto Madrid Blvd and 67th St S,,33.543640000000003,-86.720519999999993,,
602,1610,73rd St S and Oporto Madrid Blvd (IB),,33.551380000000002,-86.721080000000001,,
603,1611,London Ave and Higdon Rd,,33.548279999999998,-86.722269999999995,,
609,1617,Georgia Rd and Interlaken Ave,,33.541170000000001,-86.725970000000004,,
610,1618,Georgia Rd and Glasgow Ave (IB),,33.541469999999997,-86.728920000000002,,
611,1619,Georgia Rd and Exeter Ave S,,33.541800000000002,-86.732500000000002,,
612,1620,Georgia Rd and Brussels Ave (IB),,33.542380000000001,-86.735010000000003,,
613,1621,Georgia Rd and 64th Pl S (IB),,33.542070000000002,-86.738280000000003,,
614,1622,Georgia Rd and 63rd St S (IB),,33.541939999999997,-86.740049999999997,,
615,1623,Georgia Rd and 61st St,,33.541829999999997,-86.742869999999996,,
616,1624,Georgia Rd and 59th St S (IB),,33.541719999999998,-86.747839999999997,,
617,1625,1st Ave S and 57th St S,,33.541319999999999,-86.749570000000006,,
618,1626,1st Ave S and 55th St S (IB),,33.538640000000001,-86.751840000000001,,
619,1627,1st Ave S and 53rd St,,33.534799999999997,-86.754549999999995,,
620,1628,3rd Ave S and 50th St S,,33.53125,-86.757739999999998,,
621,1629,5th Ave S and 49th St,,33.530090000000001,-86.758930000000007,,
622,1630,3rd Ave S and 48th St S,,33.528869999999998,-86.760170000000002,,
623,1631,5th Ave S and 47th St S,,33.5274,-86.762180000000001,,
624,1632,5th Ave S and 45th St,,33.526449999999997,-86.764619999999994,,
625,1633,3RD AVE S AND 43RD ST (IB),,33.525910000000003,-86.769419999999997,,
626,1634,3rd Ave S and Workshops Inc (IB),,33.524970000000003,-86.771330000000006,,
627,1635,3rd Ave S and 41st St S,,33.524009999999997,-86.773359999999997,,
628,1636,3rd Ave S and 39th St S,,33.522489999999998,-86.776600000000002,,
629,1637,3rd Ave S and 38th St S,,33.521880000000003,-86.777860000000004,,
630,1638,3rd Ave S and 35th St S (Career Center),,33.519559999999998,-86.782679999999999,,
631,1639,3rd  Ave and 34th St S (AIDB),,33.519100000000002,-86.783659999999998,,
632,1640,3rd Ave S and 32nd St,,33.518000000000001,-86.785960000000003,,
633,1641,3rd Ave and 30th St,,33.516640000000002,-86.788839999999993,,
634,1642,3rd Ave S and 27th St,,33.514789999999998,-86.792689999999993,,
635,1643,3rd Ave S and 24th St S,,33.512729999999998,-86.797020000000003,,
636,1644,3rd Ave S and 23rd St S,,33.512079999999997,-86.798379999999995,,
637,1645,3rd Ave S and 20th St S,,33.509880000000003,-86.803039999999996,,
639,1647,18th St S and 2nd Ave S,,33.509839999999997,-86.806190000000001,,
640,1648,18th St S and Morris Ave,,33.512390000000003,-86.807900000000004,,
641,1649,18th St N and 6th Ave N,,33.517719999999997,-86.811520000000002,,
642,1650,8th Ave N and 19th St N,,33.521329999999999,-86.812070000000006,,
643,1651,19th St N and 10th Ave N,,33.523789999999998,-86.813770000000005,,
644,1652,19th St N Near 1201 Address,,33.526380000000003,-86.815640000000002,,
645,1653,19th St N and 13th Ave N,,33.527790000000003,-86.81662,,
648,1656,11th Ave and 19th St N,,33.525260000000003,-86.815029999999993,,
649,1657,11th Ave and 18th St N,,33.524349999999998,-86.816299999999998,,
651,1659,12th Ct and 16th St,,33.524619999999999,-86.820369999999997,,
652,1660,12th Ct and 15th St N,,33.524619999999999,-86.821110000000004,,
653,1661,12th Ct and 13th St,,33.524650000000001,-86.823369999999997,,
654,1662,12th Ct and 12th St N,,33.524639999999998,-86.824470000000005,,
655,1663,12th Ct and 4th Pl N,,33.52469,-86.828900000000004,,
656,1664,12TH AVE & 4TH PLACE,,33.522919999999999,-86.829520000000002,,
657,1665,11th Ct N and 4th St N,,33.521929999999998,-86.83014,,
658,1666,11TH COURT & BANKHEAD,,33.522260000000003,-86.83314,,
659,1667,11th Ct N and 1st St W,,33.522320000000001,-86.837850000000003,,
660,1668,11th Ct N and 4th St W,,33.522410000000001,-86.842330000000004,,
661,1669,11th Ct N and 5th St W,,33.522370000000002,-86.843890000000002,,
662,1670,11th Ct N and 7th St W,,33.522419999999997,-86.847040000000007,,
664,1672,12th Ave W and 7th St W,,33.523510000000002,-86.847160000000002,,
665,1673,12th Ave W and 6th St W,,33.523670000000003,-86.845650000000006,,
666,1674,12th Ave W and 4th St W,,33.52366,-86.842460000000003,,
667,1675,3rd St W and 15th Ave W,,33.52581,-86.840770000000006,,
668,1676,15th Ave W and 1st St,,33.527540000000002,-86.837270000000004,,
669,1677,15th Ave W and Center St,,33.52901,-86.835350000000005,,
670,1678,15th Ave N and 2nd St,,33.529049999999998,-86.834090000000003,,
671,1679,15th Ave N and 3rd Pl,,33.529249999999998,-86.830979999999997,,
672,1680,3rd Pl and 14th Ct N,,33.528489999999998,-86.830939999999998,,
673,1681,3rd St and 14th Ave N,,33.527810000000002,-86.831789999999998,,
674,1682,3rd St and 13th Ct N,,33.526589999999999,-86.831810000000004,,
675,1683,3rd St and 13th Ave N,,33.525410000000001,-86.831829999999997,,
676,1684,3rd St and 12th Terr,,33.524230000000003,-86.831800000000001,,
677,1685,4th St and 12th Ave,,33.522829999999999,-86.830309999999997,,
678,1686,4th Place N and 12th Ave N,,33.522750000000002,-86.829560000000001,,
679,1687,4th Pl and 12th Ct N,,33.524560000000001,-86.829390000000004,,
680,1688,12th Ct and 13th St,,33.524560000000001,-86.823549999999997,,
681,1689,12th Ct and 16th St,,33.524540000000002,-86.820130000000006,,
683,1691,11th Ave and 19th St,,33.524439999999998,-86.814459999999997,,
684,1692,19th St N and 8th Ave N,,33.520899999999997,-86.812070000000006,,
685,1693,3rd Ave N & 23rd St N,,33.518349999999998,-86.802340000000001,,
686,1694,24th St N and 4th Ave N,,33.51972,-86.801879999999997,,
687,1695,8th Ave N and 28th St N,,33.526649999999997,-86.799620000000004,,
688,1696,8TH AVE & 31ST ST,,33.528460000000003,-86.795739999999995,,
689,1697,31st St N and R Arrington Jr Blvd,,33.531370000000003,-86.797089999999997,,
690,1698,R Arrington Jr Blvd and 34th St N,,33.533329999999999,-86.793340000000001,,
691,1699,Richard Arrington Blvd and 37th St N,,33.537089999999999,-86.785420000000002,,
692,1700,R Arrington Jr Blvd and 39th St N,,33.538429999999998,-86.782390000000007,,
693,1701,Richard Arrington Blvd and Coosa St,,33.539490000000001,-86.780259999999998,,
694,1702,R Arrington Jr Blvd and 41st St N,,33.540210000000002,-86.777050000000003,,
695,1703,R Arrington Jr Blvd and 42nd Pl N,,33.540390000000002,-86.774730000000005,,
696,1704,R Arrington Jr Blvd and 44th St N,,33.541420000000002,-86.77252,,
697,1705,R Arrington Jr Blvd and 44th Pl N,,33.541980000000002,-86.771209999999996,,
698,1706,R Arrington Jr Blvd and 45th St N,,33.54271,-86.769649999999999,,
699,1707,R Arrington Jr Blvd and 46th St N,,33.543340000000001,-86.76831,,
700,1708,R Arrington Jr Blvd and 47th St N,,33.543480000000002,-86.765979999999999,,
701,1709,R Arrington Jr Blvd and 48th St N,,33.543419999999998,-86.763739999999999,,
702,1710,10TH AVE & 50TH ST,,33.543689999999998,-86.761390000000006,,
703,1711,50th St N nearside 15th Ave N,,33.54804,-86.761380000000003,,
704,1712,BIRMINGHAM INTERNATIONAL AIRPORT,,33.561250000000001,-86.752279999999999,,
719,1732,15th Ave and 51st St,,33.548450000000003,-86.759680000000003,,
721,1735,Richard Arrington Blvd and 48th St N (IB,,33.543430000000001,-86.763360000000006,,
722,1736,Richard Arrington Blvd and 47th St N (IB,,33.54345,-86.76558,,
723,1737,Richard Arrington Blvd and 46th St N (IB,,33.543559999999999,-86.767880000000005,,
724,1738,Richard Arrington Blvd and 45th St N (IB,,33.542960000000001,-86.769139999999993,,
725,1739,Richard Arrington Blvd and 44th Pl N (IB,,33.542169999999999,-86.770840000000007,,
726,1740,Richard Arrington Blvd and 44th St N,,33.541539999999998,-86.772189999999995,,
727,1741,Richard Arrington Blvd and 41st St N (IB,,33.540230000000001,-86.776579999999996,,
728,1742,R Arrington Jr Blvd and 40th Pl N,,33.540210000000002,-86.777720000000002,,
729,1743,R Arrington Jr Blvd and Coosa St,,33.539819999999999,-86.779820000000001,,
730,1744,R Arrington Jr Blvd and Appalachee St,,33.539169999999999,-86.781030000000001,,
731,1745,R Arrington Jr Blvd N and 37th Pl,,33.537739999999999,-86.784120000000001,,
732,1746,R Arrington Jr Blvd N and 36th Way,,33.536790000000003,-86.78613,,
733,1747,Richard Arrington Blvd and 34th St N (IB,,33.533589999999997,-86.792950000000005,,
734,1748,31st St and 8th Ave N,,33.528700000000001,-86.795609999999996,,
735,1749,8th Ave N nearside 30th St N,,33.528089999999999,-86.796670000000006,,
736,1750,24th St N nearside Park Pl,,33.522710000000004,-86.804019999999994,,
737,1751,24th St N and 6th Ave N,,33.521979999999999,-86.80359,,
738,1752,24th St N and 4th Ave N (IB),,33.51999,-86.802229999999994,,
739,1753,24th St N nearside 3rd Ave N,,33.518979999999999,-86.801559999999995,,
740,1754,5th Ave N and 24th St N,,33.521030000000003,-86.802639999999997,,
741,1755,24th St N and 7th Ave N,,33.52328,-86.804280000000006,,
742,1756,24th St N and Richard Arrington Jr. Blvd,,33.52684,-86.806709999999995,,
743,1757,24th St and 11th Ave N,,33.528239999999997,-86.807630000000003,,
744,1758,24th St and 12th Ave N,,33.529119999999999,-86.808189999999996,,
745,1759,12th Ave N and 25th St N,,33.530140000000003,-86.807580000000002,,
746,1760,12th Ave N and 27th St N,,33.531550000000003,-86.804640000000006,,
747,1761,12th Ave N and 28th St N,,33.532319999999999,-86.802930000000003,,
748,1762,12th Ave N and 29th St N,,33.532769999999999,-86.802059999999997,,
749,1763,12th Ave N and 30th St N,,33.533389999999997,-86.800629999999998,,
750,1764,12th Ave N and 31st St N,,33.534880000000001,-86.799449999999993,,
751,1765,31st St N and 15th Ave N,,33.53837,-86.801860000000005,,
752,1766,15th Ave N and 32nd St N,,33.539029999999997,-86.800740000000005,,
753,1767,15th Ave N and 33rd St N,,33.539549999999998,-86.799350000000004,,
754,1768,Norwood Blvd and 34th St,,33.540320000000001,-86.798389999999998,,
755,1769,Norwood Blvd and 35th St,,33.540529999999997,-86.796120000000002,,
756,1770,Norwood Blvd and 36th St N,,33.539879999999997,-86.793850000000006,,
757,1771,Norwood Blvd and Vanderbilt Rd,,33.539670000000001,-86.792299999999997,,
758,1773,10TH AVE & COOSA ST,,33.540109999999999,-86.780389999999997,,
759,1774,Coosa St and 11th Ave N,,33.540889999999997,-86.78098,,
760,1775,Coosa St and 12th Ave N,,33.542319999999997,-86.781880000000001,,
761,1776,East Lake Blvd and Vanderbilt Rd,,33.55303,-86.783190000000005,,
762,1777,Vanderbilt Rd and 35th St N,,33.556730000000002,-86.783169999999998,,
763,1778,Vanderbilt Rd and 37th Ave N,,33.558230000000002,-86.783150000000006,,
764,1779,Vanderbilt Rd and 40th St N,,33.561950000000003,-86.783180000000002,,
765,1780,41st Ave and 39th St N,,33.563009999999998,-86.781220000000005,,
766,1781,41st Ave and 40th St N,,33.562869999999997,-86.7791,,
767,1782,41st Ave and 41st St N,,33.56277,-86.776889999999995,,
768,1783,41st Ave and 42nd St N,,33.562739999999998,-86.774619999999999,,
769,1784,43RD ST & 43RD PLACE,,33.564059999999998,-86.771209999999996,,
770,1785,43rd Pl and 44th Ave,,33.565060000000003,-86.771199999999993,,
771,1786,44th Ave N and 43rd St,,33.565170000000002,-86.77243,,
772,1787,44th Ave N and 42nd St,,33.565269999999998,-86.774379999999994,,
773,1788,42nd St N and 41st Ave N,,33.56279,-86.774690000000007,,
774,1789,41st Ave N and 40th Pl N,,33.562930000000001,-86.778210000000001,,
775,1790,40th Pl and 43rd Ave,,33.56409,-86.778310000000005,,
776,1791,40th Pl and 44th Ave,,33.565109999999997,-86.778329999999997,,
777,1792,40th Pl and 49th Ct N,,33.570819999999998,-86.77834,,
778,1793,49th Ct N and Jefferson Ave,,33.571370000000002,-86.778899999999993,,
779,1794,Jefferson Ave and Cedar St,,33.570639999999997,-86.78022,,
780,1795,Jefferson Ave and Spring St,,33.569479999999999,-86.781620000000004,,
781,1796,Jefferson Ave and Jackson St (By Conveni,,33.5685,-86.782910000000001,,
782,1797,Cedar St and Bell Ave,,33.571190000000001,-86.78116,,
783,1798,Cedar St and Fulton Ave,,33.571840000000002,-86.781940000000006,,
784,1799,Cedar St and Jackson Blvd,,33.572980000000001,-86.782439999999994,,
785,1800,Jackson Blvd and Hanover St,,33.577469999999998,-86.776780000000002,,
786,1801,Jackson Blvd and Elm St,,33.578560000000003,-86.775049999999993,,
787,1802,Jackson Blvd and Thomason Ave,,33.579790000000003,-86.773060000000001,,
788,1803,Jackson Blvd and East Lake Blvd,,33.58202,-86.770650000000003,,
790,1805,Jackson Blvd and East Lake Blvd (IB),,33.581969999999998,-86.770570000000006,,
791,1806,Jackson Blvd and Elm St,,33.578749999999999,-86.774940000000001,,
792,1807,Jackson Blvd and Cedar St,,33.57244,-86.782759999999996,,
793,1808,49th Ct and 40th Pl N,,33.571109999999997,-86.778390000000002,,
794,1809,40th Pl N and Hale Ave,,33.569040000000001,-86.778419999999997,,
795,1810,41st Ave and 39th St N,,33.563040000000001,-86.780990000000003,,
796,1811,Vanderbilt Rd and 40th Ave,,33.562379999999997,-86.783439999999999,,
797,1812,Vanderbilt Rd and 37th Ave,,33.558430000000001,-86.78349,,
798,1813,Vanderbilt Rd and East Lake Blvd (IB),,33.552630000000001,-86.783580000000001,,
799,1814,Coosa St and 12th Ave N (IB),,33.542439999999999,-86.782160000000005,,
800,1815,Coosa St and 11th Ave N (IB),,33.541110000000003,-86.78125,,
801,1817,Vanderbilt Rd and 12th Ave N,,33.537500000000001,-86.791889999999995,,
802,1818,Vanderbilt Rd and Norwood Blvd,,33.540170000000003,-86.79213,,
803,1819,Norwood Blvd and 36th St,,33.540529999999997,-86.793719999999993,,
804,1820,Norwood Blvd and 35h St,,33.541060000000002,-86.795829999999995,,
805,1821,Norwood Blvd and 34th St,,33.540979999999998,-86.798169999999999,,
806,1822,Norwood Blvd and 33rd St,,33.54034,-86.799160000000001,,
807,1823,Norwood Blvd and 32nd St N,,33.539430000000003,-86.800870000000003,,
808,1824,15th Ave N and 31st St,,33.538200000000003,-86.801879999999997,,
809,1825,31st St N and 13th Ave N,,33.53586,-86.800299999999993,,
810,1826,31st St N and 12th Ave N,,33.534599999999998,-86.799459999999996,,
811,1827,12th Ave N and 30th St,,33.533720000000002,-86.800420000000003,,
812,1828,12th Ave N and 29th St,,33.53293,-86.802109999999999,,
813,1829,12th Ave N and 27th St,,33.531799999999997,-86.804519999999997,,
814,1830,12th Ave N and Carraway Blvd (Rally's),,33.530900000000003,-86.806389999999993,,
815,1831,12th Ave N and 24th St N,,33.529429999999998,-86.808620000000005,,
816,1832,24th St N and 11th Ave N (IB),,33.528379999999999,-86.807929999999999,,
817,1833,6th Ave N and 24th St N,,33.521720000000002,-86.803889999999996,,
818,1834,18th St N and 7th Ave N,,33.519280000000002,-86.812619999999995,,
819,1835,8th Ave and Richard Arrington Blvd,,33.522060000000003,-86.809150000000002,,
820,1836,8th Ave and 22nd St N,,33.522959999999998,-86.807299999999998,,
821,1837,24th St N and 8th Ave N,,33.524729999999998,-86.805269999999993,,
822,1838,Carraway Blvd and 12th Ave N,,33.531559999999999,-86.806229999999999,,
823,1839,Carraway Blvd and 15th Ave N,,33.535629999999998,-86.808999999999997,,
824,1840,Carraway Blvd and 16th Ave N,,33.536209999999997,-86.809439999999995,,
825,1841,Carraway Blvd and 17th Ave N,,33.538290000000003,-86.810829999999996,,
826,1842,Carraway Blvd and 19th Ave N,,33.539610000000003,-86.81174,,
827,1843,Carraway Blvd and 21st Ave N,,33.541310000000003,-86.812880000000007,,
828,1844,Carraway Blvd and Finley Blvd,,33.54645,-86.815640000000002,,
829,1845,30TH AVENUE & 27TH ST,,33.551929999999999,-86.81711,,
830,1846,27th St N and 31st Ave N,,33.553080000000001,-86.816779999999994,,
831,1847,31st Ave and 28th St N,,33.553519999999999,-86.815560000000005,,
832,1848,28th St and 30th Ave N,,33.552720000000001,-86.815150000000003,,
833,1849,29th Ave and 29th St N,,33.552010000000003,-86.810130000000001,,
834,1850,29th Ave and 30th St N,,33.55198,-86.808269999999993,,
836,1852,29th Ave and Shuttleworth Dr.,,33.551859999999998,-86.805869999999999,,
837,1853,29th Ave and 33rd St,,33.55198,-86.800659999999993,,
838,1854,33rd St and 27th Court N,,33.550609999999999,-86.800659999999993,,
839,1855,33rd St and 27th Ave N,,33.549619999999997,-86.800650000000005,,
840,1856,34th St and 28th Ave N,,33.55106,-86.798329999999993,,
841,1857,34th St and 29th Ave N,,33.551810000000003,-86.798339999999996,,
842,1858,34th St and 31st Ave N,,33.553579999999997,-86.798310000000001,,
843,1859,34th St and 32nd Ave N,,33.554340000000003,-86.798310000000001,,
844,1860,34th St and 33rd Ave N,,33.555199999999999,-86.798320000000004,,
845,1861,33rd Ave and 33rd Pl N,,33.555480000000003,-86.799400000000006,,
846,1862,33rd Ave and 32nd Pl N,,33.555489999999999,-86.80162,,
847,1863,33rd Ave and Shuttleworth Dr.,,33.555549999999997,-86.804239999999993,,
848,1864,Shuttleworth Dr and 33rd Terrace N,,33.556939999999997,-86.803709999999995,,
849,1865,Shuttleworth Dr. and 32nd Pl N,,33.558250000000001,-86.802009999999996,,
850,1866,Shuttleworth Dr. and 33rd St N,,33.558970000000002,-86.801209999999998,,
851,1867,Shuttleworth and 33rd Pl N,,33.559820000000002,-86.800269999999998,,
852,1868,Shuttleworth and 34th Terrace N,,33.561100000000003,-86.798929999999999,,
853,1869,Shuttleworth and 41st St N,,33.5642,-86.797300000000007,,
854,1870,43rd Ave and 36th St N,,33.565809999999999,-86.793629999999993,,
855,1871,43RD AVENUE & 37TH ST,,33.565759999999997,-86.790850000000006,,
856,1872,37th St and 42nd Ave,,33.564860000000003,-86.790790000000001,,
857,1873,42nd Ave and 36th St N,,33.564990000000002,-86.793430000000001,,
858,1874,42nd Ave and Shuttleworth Dr.,,33.565080000000002,-86.796449999999993,,
859,1875,Shuttleworth Dr. and 34th Pl N,,33.561660000000003,-86.798580000000001,,
860,1876,Shuttlesworth Dr and 33rd St N,,33.559130000000003,-86.801220000000001,,
861,1877,Shuttleworth Dr. and 33rd Ave N,,33.555459999999997,-86.804230000000004,,
862,1878,33rd Ave N and 32nd St N,,33.55545,-86.80283,,
863,1879,33rd Ave N and 32nd Pl N,,33.555410000000002,-86.801749999999998,,
864,1880,34th St N and 31st Ave N,,33.55415,-86.798439999999999,,
865,1881,34th St N and 28th Ave N,,33.550649999999997,-86.798389999999998,,
866,1882,34th St and 27th Ave N,,33.549669999999999,-86.798469999999995,,
867,1883,33rd St and 28th Ave N,,33.550719999999998,-86.800550000000001,,
868,1884,29th Ave and 32nd St N,,33.552050000000001,-86.802239999999998,,
870,1886,29th Ave N and 30th St N,,33.552039999999998,-86.808070000000001,,
871,1887,29th Ave N and 29th St N,,33.552109999999999,-86.809970000000007,,
872,1888,28th St N and 30th Ave N (IB),,33.55292,-86.815070000000006,,
873,1889,31st Ave N and Birmingham Towers,,33.553489999999996,-86.816149999999993,,
874,1890,27th St and 31st Ave N.,,33.55294,-86.816919999999996,,
875,1891,27th St N and 30th Ave N,,33.55209,-86.817130000000006,,
876,1892,Carraway Blvd and Finley Blvd (IB),,33.545459999999999,-86.815470000000005,,
877,1893,Carraway Blvd and 21st Ave N (IB),,33.541469999999997,-86.813220000000001,,
878,1894,Carraway Blvd and 19th Ave N (IB),,33.539749999999998,-86.812020000000004,,
879,1895,Carraway Blvd and 16th Ave N (IB),,33.535919999999997,-86.809430000000006,,
880,1896,Carraway Blvd and 12th Ave N (IB),,33.531190000000002,-86.806200000000004,,
881,1897,12th Ave N and 25th St N (IB),,33.530000000000001,-86.808260000000004,,
882,1898,24th Street and Richard Arrington Blvd,,33.527000000000001,-86.807000000000002,,
883,1899,8TH AVE & 24TH ST,,33.523780000000002,-86.804839999999999,,
896,1912,1st Ave and 66th St N,,33.549819999999997,-86.740269999999995,,
897,1913,1ST AVENUE & 68TH ST,,33.551470000000002,-86.738410000000002,,
908,1924,EASTERN HEALTH CLINIC,,33.584739999999996,-86.717460000000003,,
909,1925,ROEBUCK SHOPPING CENTER,,33.59093,-86.701260000000005,,
910,1926,Pkwy East and Orchard Dr,,33.591769999999997,-86.696299999999994,,
911,1927,Pkwy East and Crow Dr,,33.595570000000002,-86.694289999999995,,
912,1928,Huffman Rd farside Roebuck Dr,,33.599559999999997,-86.691119999999998,,
913,1929,Huffman Rd Near Cornerstone School (outb,,33.60378,-86.689279999999997,,
914,1930,Huffman Rd and Springville Rd,,33.606580000000001,-86.688010000000006,,
915,1931,Huffman Rd and Centerpoint Pkwy (Jet Pep,,33.610390000000002,-86.687340000000006,,
916,1932,Centerpoint Pkwy and Cheyenne Blvd,,33.616070000000001,-86.685360000000003,,
917,1933,Centerpoint Pkwy and 13th Ave NE,,33.619489999999999,-86.684799999999996,,
918,1934,Centerpoint Pkwy and 14th Ave NE,,33.62135,-86.684889999999996,,
919,1935,Centerpoint Pkwy and Lake Dr,,33.624130000000001,-86.68526,,
920,1936,Centerpoint Pkwy and 15th Terrace NE,,33.627000000000002,-86.685410000000005,,
921,1937,Centerpoint Pkwy and 16th Ave NE (near S,,33.629759999999997,-86.685090000000002,,
922,1938,Centerpoint Pkwy and Polly Reed Rd,,33.635170000000002,-86.683959999999999,,
923,1939,Centerpoint Pkwy and 19th Ct NE,,33.636920000000003,-86.683719999999994,,
924,1940,Centerpoint Pkwy and 21st Ave NE,,33.640619999999998,-86.683660000000003,,
925,1941,CENTERPOINT PKWY & 23RD AVE,,33.645780000000002,-86.684960000000004,,
926,1942,23rd Ave NW and 3rd St NW,,33.645740000000004,-86.691659999999999,,
927,1943,23rd Ave NW and 4th St NW,,33.645490000000002,-86.694469999999995,,
928,1944,23rd Ave NW and 5th Pl NW,,33.644570000000002,-86.698909999999998,,
929,1945,23rd Ave NW and 7th St,,33.644039999999997,-86.705669999999998,,
930,1946,23rd Ave NW and Carson Rd,,33.643830000000001,-86.707560000000001,,
931,1947,Carson Rd and 23rd Terrace NW,,33.645330000000001,-86.708770000000001,,
932,1948,Carson Rd and 24th Ave NW,,33.647170000000003,-86.708960000000005,,
933,1949,JEFFERSON STATE COLLEGE,,33.651159999999997,-86.707759999999993,,
934,1950,Sunhill Rd and 7th St NW,,33.651350000000001,-86.704359999999994,,
935,1951,Sunhill Rd and 6th St NW,,33.652090000000001,-86.701239999999999,,
936,1952,Sunhill Rd and 5th Pl NW,,33.653109999999998,-86.698269999999994,,
937,1953,Sunhill Rd and 4th St NW,,33.652030000000003,-86.693470000000005,,
938,1954,25th Ave NW and 1st Pl NW,,33.651029999999999,-86.686660000000003,,
939,1955,25th Ave NW and Centerpoint Pkwy,,33.650959999999998,-86.683220000000006,,
940,1956,Centerpoint Pkwy and 23rd Terrace NW,,33.64864,-86.683750000000003,,
941,1957,23RD AVE & CENTERPOINT PKWY,,33.645969999999998,-86.683970000000002,,
942,1958,Centerpoint Parkway and 22nd Ave NW,,33.642200000000003,-86.683850000000007,,
943,1959,Centerpoint Pkwy and 20th Ave NW,,33.63776,-86.683869999999999,,
944,1960,Centerpoint Parkway and Polly Reed Rd (I,,33.634920000000001,-86.684200000000004,,
945,1961,Centerpoint Pkwy and 1st St (Applebee's),,33.627540000000003,-86.685770000000005,,
946,1962,Centerpoint Parkway and Lake Drive (IB),,33.624740000000003,-86.685699999999997,,
947,1963,Centerpoint Pkwy and 14th Ave NW (Cathed,,33.622680000000003,-86.68544,,
948,1964,Centerpoint Parkway and 13th Ave NE (IB),,33.61983,-86.685159999999996,,
949,1965,Centerpoint Pkwy and Hiawatha Dr,,33.616729999999997,-86.685569999999998,,
950,1966,Centerpoint Pkwy and Huffman Rd,,33.61036,-86.687489999999997,,
951,1967,Huffman Rd and Springville Rd,,33.608379999999997,-86.687420000000003,,
952,1968,Huffman Rd and Cornerstone Inbound,,33.604089999999999,-86.689250000000001,,
953,1969,Roebuck Dr and Huffman Rd,,33.599620000000002,-86.691209999999998,,
954,1970,Parkway East and Gene Reed Rd,,33.597430000000003,-86.693759999999997,,
955,1971,Pkwy East Near Burger King,,33.595950000000002,-86.694540000000003,,
956,1972,Parkway East and Red Lane Rd,,33.59111,-86.698279999999997,,
957,1973,Red Lane Rd and Aaron Dr,,33.591119999999997,-86.699650000000005,,
958,1974,RED LANE ROAD AND WALMART,,33.591140000000003,-86.701030000000003,,
959,1975,Eastern Health Clinic (IB),,33.58475,-86.717609999999993,,
969,1985,1st Ave N and 68th St N (IB),,33.551279999999998,-86.738939999999999,,
970,1986,66th St N and 1st Ave N,,33.549930000000003,-86.740499999999997,,
987,2003,Carson Rd & Sun Valley Rd (Apts.),,33.635390000000001,-86.702740000000006,,
988,2004,Carson Rd and Sun Valley Rd (IB),,33.635559999999998,-86.702889999999996,,
991,2007,1st Ave N and 34th St,,33.523350000000001,-86.786640000000006,,
992,2008,1st Ave N and 39th St N,,33.526739999999997,-86.779650000000004,,
993,2009,1st Ave N and 41st St,,33.528030000000001,-86.777050000000003,,
994,2010,1st Ave N and 43rd St,,33.530279999999998,-86.772149999999996,,
995,2011,1st Ave N and 45th Pl,,33.532089999999997,-86.768299999999996,,
996,2012,1st Ave N and 47th Pl N,,33.534080000000003,-86.764049999999997,,
997,2013,1st Ave N and 48th St N,,33.534550000000003,-86.763000000000005,,
998,2014,1ST AVENUE & 50TH ST,,33.53548,-86.761189999999999,,
999,2015,1st Ave N and 52nd St,,33.53651,-86.758880000000005,,
1000,2016,1st Ave N and 55th St,,33.539700000000003,-86.752849999999995,,
1001,2017,1st Ave N and 57th St,,33.541849999999997,-86.750439999999998,,
1003,2019,1st Ave N and 60th St N,,33.54421,-86.747320000000002,,
1004,2020,1st Ave N and 64th St N,,33.547449999999998,-86.743139999999997,,
1005,2021,1st Ave N and 65th St N,,33.548690000000001,-86.741669999999999,,
1006,2022,68th St S and Division Ave,,33.550919999999998,-86.737459999999999,,
1007,2023,68th St S and 1st Ave S,,33.550249999999998,-86.736490000000003,,
1008,2024,2nd Ave S and 68th St,,33.549630000000001,-86.734989999999996,,
1009,2025,2nd Ave S and 70th St S,,33.551580000000001,-86.733180000000004,,
1010,2026,2nd Ave S and 71st St S,,33.552570000000003,-86.732140000000001,,
1011,2027,2nd Ave S and 73rd Ave S,,33.554760000000002,-86.730019999999996,,
1012,2028,2nd Ave S and Oporto Madrid Blvd,,33.558880000000002,-86.726039999999998,,
1013,2029,2nd Ave S near Village Market,,33.560139999999997,-86.724950000000007,,
1014,2030,2nd Ave S and 78th St,,33.56109,-86.724360000000004,,
1015,2031,2nd Ave S and 79th St,,33.562980000000003,-86.723140000000001,,
1016,2032,2nd Ave S and 81st St S,,33.565939999999998,-86.721249999999998,,
1017,2033,2nd Ave S and 82nd St,,33.567909999999998,-86.71996,,
1022,2038,85th St S and 2nd Ave S,,33.572690000000001,-86.716859999999997,,
1023,2039,Red Oak Rd and Pkwy East,,33.577330000000003,-86.716170000000005,,
1024,2040,Pkwy East and 89th St N,,33.579479999999997,-86.712010000000006,,
1025,2041,Pkwy East and Roebuck Blvd,,33.581049999999998,-86.710620000000006,,
1026,2042,Parkway East and 4th Ave S,,33.582830000000001,-86.707650000000001,,
1027,2043,Pkwy East and Roebuck Blvd (Post Office),,33.583910000000003,-86.705420000000004,,
1028,2044,Parkway East and Shopping Center Dr,,33.587000000000003,-86.701629999999994,,
1029,2045,RED LANE & SHOPPING CENTER,,33.5899,-86.701499999999996,,
1030,2046,Red Lane Rd and Aaron Dr (Walmart),,33.590910000000001,-86.699799999999996,,
1032,2048,Parkway East and Planet Fitness,,33.585659999999997,-86.702680000000001,,
1033,2049,Parkway East and Roebuck Center,,33.584679999999999,-86.704419999999999,,
1034,2050,Pkwy East and 4th Ave So,,33.582979999999999,-86.707809999999995,,
1035,2051,Parkway East and Roebuck Blvd,,33.581009999999999,-86.711070000000007,,
1036,2052,1st Ave N and 87th St N,,33.576749999999997,-86.71875,,
1037,2053,85th St S and 2nd Ave S (IB),,33.572690000000001,-86.717110000000005,,
1041,2057,2nd Ave S and 82nd St,,33.56812,-86.719989999999996,,
1042,2058,2ND AVE SO & 80TH ST,,33.564480000000003,-86.722319999999996,,
1043,2059,2nd Ave S and 79th St,,33.563220000000001,-86.723190000000002,,
1044,2060,2nd Ave S and 78th St,,33.56174,-86.724099999999993,,
1045,2061,2nd Ave S and Oporto Madrid Blvd (IB),,33.559010000000001,-86.726039999999998,,
1046,2062,2nd Ave S and 76th St,,33.558329999999998,-86.72672,,
1047,2063,2nd Ave S and 73rd St,,33.555,-86.729929999999996,,
1048,2064,2nd Ave S and 71st St,,33.552840000000003,-86.732039999999998,,
1049,2065,2nd Ave S and 70th St,,33.551459999999999,-86.73339,,
1050,2066,2nd Ave S and 68th St,,33.549599999999998,-86.735190000000003,,
1051,2067,68th St S and 1st Ave S (IB),,33.550199999999997,-86.736099999999993,,
1052,2068,68th St S and Division Ave (IB),,33.550870000000003,-86.737170000000006,,
1053,2069,1st Ave N and 65th St N,,33.549080000000004,-86.741550000000004,,
1054,2070,1st Ave N and 60th St N,,33.544550000000001,-86.747299999999996,,
1055,2071,1st Ave N and 59th St N,,33.543489999999998,-86.748639999999995,,
1056,2072,1st Ave N and 57th St N (IB),,33.541719999999998,-86.750919999999994,,
1057,2073,1st Ave N and 55th St,,33.540329999999997,-86.752480000000006,,
1058,2074,1st Ave N and 54th St,,33.539200000000001,-86.753720000000001,,
1059,2075,1st Ave N and 52nd St,,33.536790000000003,-86.758840000000006,,
1060,2076,1st Ave N and 50th St,,33.535739999999997,-86.760999999999996,,
1061,2077,1st Ave N and 48th St,,33.534649999999999,-86.763289999999998,,
1062,2078,1st Ave N and 45th Pl,,33.532769999999999,-86.767229999999998,,
1063,2079,1st Ave N and 44th St,,33.531660000000002,-86.769509999999997,,
1064,2080,1st Ave N and 43rd St,,33.530369999999998,-86.772229999999993,,
1065,2081,1st Ave N and 41st St,,33.528579999999998,-86.776129999999995,,
1066,2082,1st Ave N and 37th St,,33.525669999999998,-86.782250000000005,,
1067,2083,1st Ave N and 34th St,,33.523820000000001,-86.786330000000007,,
1068,2084,20th St S and 3rd Ave S,,33.510179999999998,-86.802909999999997,,
1069,2085,Highland Ave & 20th St So,,33.499609999999997,-86.795069999999996,,
1070,2086,Highland Ave and R Arrington Jr Blvd,,33.499749999999999,-86.793599999999998,,
1071,2087,VESTAVIA CITY CENTER,,33.446910000000003,-86.790880000000001,,
1072,2088,HIGHWAY 31 SO & MCDONALDS,,33.445180000000001,-86.791259999999994,,
1073,2089,Hwy 31 and Vesthaven Rd,,33.437710000000003,-86.788780000000003,,
1074,2090,VESTAVIA-WALMART,,33.428449999999998,-86.790629999999993,,
1075,2091,Hwy 31 and Massey Rd,,33.422429999999999,-86.797730000000001,,
1076,2092,Hwy 31 and Vestavia Pkwy,,33.419429999999998,-86.801060000000007,,
1077,2093,ARBY'S-MCGUIRE,,33.41545,-86.804029999999997,,
1078,2094,Hwy 31 and Southland Drive,,33.40878,-86.806820000000002,,
1079,2095,Hwy 31 and Old Columbiana Rd (Hoover Vil,,33.40466,-86.806359999999998,,
1080,2096,HOOVER COURT,,33.400539999999999,-86.806139999999999,,
1081,2097,Hwy 31 and New Patton Chapel Rd (Hoover,,33.393329999999999,-86.806539999999998,,
1082,2098,GALLERIA,,33.38026,-86.81071,,
1083,2099,Lorna Rd Nearside Data Dr. (Best Buy),,33.378970000000002,-86.800319999999999,,
1084,2100,Lorna Rd and Centennial Drive,,33.382330000000003,-86.795000000000002,,
1085,2101,Lorna Rd and Lornaridge Lane (Jacks),,33.392510000000001,-86.797569999999993,,
1086,2102,LORNA TOWN SQUARE,,33.400199999999998,-86.80341,,
1087,2103,Lorna Rd and Little Valley Rd,,33.40757,-86.805440000000004,,
1088,2104,Hwy 31 and Buena Vista Dr. (Quality Inn),,33.415709999999997,-86.803510000000003,,
1089,2105,OLD TOWNE PLAZA,,33.420290000000001,-86.799660000000003,,
1090,2106,Hwy 31 and Massey Rd (IB),,33.422370000000001,-86.797330000000002,,
1091,2107,Hwy 31 near Neighborhood Walmart,,33.4283,-86.790279999999996,,
1092,2108,Hwy 31 and Old Montgomery Hwy (Sprouts),,33.439100000000003,-86.788780000000003,,
1093,2109,Canyon Rd and Hwy 31,,33.445390000000003,-86.790790000000001,,
1094,2110,Hwy 31 and Kentucky Ave,,33.447389999999999,-86.790229999999994,,
1095,2111,Highland Ave and 21st Pl S,,33.500059999999998,-86.792810000000003,,
1096,2112,Highland and RAJ Blvd,,33.499890000000001,-86.794169999999994,,
1097,2113,20th St S and 3rd Ave S,,33.509880000000003,-86.802490000000006,,
1101,2117,4th Ave N and 13th St N,,33.51276,-86.817099999999996,,
1112,2128,Graymont Ave and 3rd St W,,33.510170000000002,-86.841250000000002,,
1123,2139,Pike Rd and Decatur Ave,,33.513150000000003,-86.869129999999998,,
1155,2171,Pike Rd and Cullman Ave (IB),,33.513039999999997,-86.870559999999998,,
1156,2172,Pike Rd and Decatur Ave (IB),,33.513060000000003,-86.86936,,
1157,2173,Pike Rd and Eufaula Ave,,33.513030000000001,-86.868229999999997,,
1158,2174,Graymont Ave and 1637 address,,33.513019999999997,-86.865409999999997,,
1159,2175,Graymont Ave and 16th St W,,33.513039999999997,-86.863579999999999,,
1162,2178,Graymont Ave and 12th St W,,33.510739999999998,-86.856369999999998,,
1163,2179,Graymont Ave and 11th St W,,33.509860000000003,-86.854609999999994,,
1165,2181,GRAYMONT AND PRINCETON PKWY,,33.509140000000002,-86.849329999999995,,
1166,2182,Graymont Ave and 7th St,,33.509160000000001,-86.847440000000006,,
1167,2183,Graymont Ave and 5th Pl,,33.509439999999998,-86.845079999999996,,
1168,2184,Graymont Ave and 3rd St,,33.509880000000003,-86.84169,,
1169,2185,Graymont Ave and Jasper Rd (Elyton Villa,,33.510390000000001,-86.839929999999995,,
1170,2186,Graymont Ave and Center St (IB),,33.511220000000002,-86.836560000000006,,
1171,2187,Graymont Ave and 1st St N (IB),,33.511209999999998,-86.834779999999995,,
1172,2188,Graymont Ave and 2nd St N,,33.511180000000003,-86.833200000000005,,
1173,2189,Graymont Ave and 4th St N (IB),,33.51117,-86.830079999999995,,
1174,2190,Graymont Ave and 6th St N (IB),,33.511119999999998,-86.826859999999996,,
1175,2191,Graymont Ave and 9th St N (IB),,33.511049999999997,-86.823719999999994,,
1176,2192,5th Ave N and 12th St N,,33.512689999999999,-86.819400000000002,,
1177,2193,5th Ave N and 14th St N,,33.514020000000002,-86.816599999999994,,
1178,2194,5th Ave N and 15th St N,,33.514809999999997,-86.814790000000002,,
1179,2195,18th St S and 27th Ave S,,33.482610000000001,-86.791899999999998,,
1194,2210,WILDWOOD WALMART,,33.447279999999999,-86.821489999999997,,
1196,2212,Lakeshore Pkwy and Wildwood Pkwy,,33.447499999999998,-86.824190000000002,,
1197,2213,Lakeshore Pkwy and Wildwood Cir,,33.444899999999997,-86.828119999999998,,
1198,2214,Lakeshore Pkwy and John Carroll Dr,,33.442729999999997,-86.831429999999997,,
1199,2215,Lakeshore Pkwy and West Oxmoor Rd,,33.439520000000002,-86.843490000000003,,
1201,2217,London Pkwy and Fortis College,,33.442390000000003,-86.862340000000003,,
1202,2218,London Pkwy and Lakeshore Pkwy,,33.438560000000003,-86.863249999999994,,
1203,2219,UNITED CEREBRAL PALSY,,33.43197,-86.874219999999994,,
1204,2220,Wenonah Oxmoor Rd Near Precision Grindin,,33.435290000000002,-86.87115,,
1205,2221,Wenonah Oxmoor Rd and Ostlin Dr,,33.435450000000003,-86.867239999999995,,
1206,2222,Wenonah Oxmoor Rd and Webb Circle,,33.433860000000003,-86.862629999999996,,
1207,2223,Wenonah Oxmoor Rd and Goss St,,33.431600000000003,-86.859650000000002,,
1208,2224,Wenonah Oxmoor Rd and Cammack Rd,,33.430329999999998,-86.857860000000002,,
1209,2225,Wenonah Oxmoor Rd and Oxmoor Pl,,33.431260000000002,-86.852890000000002,,
1210,2226,Wenonah Oxmoor Rd and Tom Martin Dr,,33.433050000000001,-86.849410000000006,,
1211,2227,Tom Martin Dr and Media Service Bldg,,33.431330000000003,-86.849999999999994,,
1212,2228,INTERNAL REVENUE SERVICE,,33.432639999999999,-86.848780000000005,,
1213,2229,Tom Martin Dr Near 757 Address,,33.435339999999997,-86.850489999999994,,
1214,2230,Tom Martin Dr and Lakeshore Pkwy,,33.437190000000001,-86.852530000000002,,
1215,2231,Lakeshore Pkwy and West Oxmoor Rd (IB),,33.439349999999997,-86.842489999999998,,
1216,2232,John Carroll Dr and Lakeshore Pkwy,,33.442959999999999,-86.830299999999994,,
1217,2233,Lakeshore Pkwy and Wildwood Cir,,33.445349999999998,-86.826759999999993,,
1218,2234,INDUSTRIAL LANE BOOKS A MILLION,,33.448779999999999,-86.855230000000006,,
1235,2251,28TH AVE & 18TH ST,,33.481490000000001,-86.791679999999999,,
1236,2252,19th St N and 14th Ave N,,33.529389999999999,-86.817660000000004,,
1237,2253,19th St N and 14th Ct N,,33.529769999999999,-86.81832,,
1238,2254,14th Ct N and 18th St N,,33.529139999999998,-86.819810000000004,,
1239,2255,18th Ave N Midblock 16th St and 15th St,,33.529640000000001,-86.8202,,
1240,2256,16th St N and 16th Ct,,33.531869999999998,-86.821920000000006,,
1241,2258,FINLEY BYPASS & 16TH STREET,,33.539259999999999,-86.828770000000006,,
1242,2259,16th St N and 25th Ave N,,33.541780000000003,-86.82987,,
1243,2260,16th St N and 26th Ave N,,33.543080000000003,-86.830420000000004,,
1244,2261,16th St N and 29th Ave N,,33.546399999999998,-86.831829999999997,,
1245,2262,16th St N and 30th Ave N,,33.547350000000002,-86.832239999999999,,
1246,2263,16th St N and 33rd St N,,33.550420000000003,-86.833539999999999,,
1247,2264,4th St W and 34th Ave W,,33.549430000000001,-86.843100000000007,,
1248,2265,4th St W and 36th Terrace,,33.552750000000003,-86.841800000000006,,
1249,2266,4th St W and 37th Court W,,33.554600000000001,-86.841480000000004,,
1250,2267,4th St W and 38th St,,33.55603,-86.840850000000003,,
1251,2268,38th Ave W and 2nd St W,,33.55603,-86.839349999999996,,
1252,2269,38th Ave W and 1st Pl W,,33.555999999999997,-86.838480000000004,,
1253,2270,1st St W and 39th Ave W,,33.55809,-86.837260000000001,,
1254,2271,40th Ave and Center St,,33.558729999999997,-86.835179999999994,,
1255,2272,Daniel Payne Hwy and Church St,,33.561349999999997,-86.831050000000005,,
1256,2273,Daniel Payne Dr and 24th St N,,33.562350000000002,-86.823679999999996,,
1257,2274,24th St N and 39th Ct N,,33.561129999999999,-86.823160000000001,,
1258,2275,24th St N and 39th Ave N,,33.55883,-86.82347,,
1259,2276,24th St N and 36th Ave N,,33.557000000000002,-86.823599999999999,,
1260,2277,24th St N and 35th Ave N,,33.555990000000001,-86.823049999999995,,
1261,2278,24th St N and 33rd Ave N,,33.554020000000001,-86.822220000000002,,
1262,2279,24th St N and 32nd Ave N,,33.552999999999997,-86.821809999999999,,
1263,2280,24th St N and 31st Ave N,,33.551960000000001,-86.821380000000005,,
1264,2281,30th Ave N and 25th St N,,33.551070000000003,-86.82011,,
1265,2282,27th St N and 34th Ave N,,33.556089999999998,-86.818049999999999,,
1266,2283,27th St N and 35th Ave N,,33.557009999999998,-86.818460000000002,,
1267,2284,35th Ave N and 28th St N,,33.557479999999998,-86.817220000000006,,
1268,2285,35th Ave N and 28th Pl N,,33.557810000000003,-86.815979999999996,,
1269,2286,29th St N and 40th Ave N,,33.562899999999999,-86.811449999999994,,
1270,2287,29th St N and 41st Ave N,,33.564419999999998,-86.811430000000001,,
1271,2288,42nd Ave N and 29th Pl N,,33.566270000000003,-86.810400000000001,,
1272,2289,42nd Ave and 30th St N,,33.566560000000003,-86.809370000000001,,
1280,2297,29th St N and 40th Ave N,,33.563099999999999,-86.811539999999994,,
1281,2298,35th Ave N and 28th St N,,33.557670000000002,-86.817059999999998,,
1282,2299,27th St N and 34th Ave N,,33.556220000000003,-86.818299999999994,,
1283,2300,27th St N and 32nd Ave N,,33.554319999999997,-86.81747,,
1284,2301,30th Ave N and 24th St N,,33.551009999999998,-86.820769999999996,,
1285,2302,24th St N and 32nd St N,,33.552750000000003,-86.821600000000004,,
1286,2303,24th St N and 34th Ave N,,33.554810000000003,-86.822450000000003,,
1287,2304,24th St N and 35th St N,,33.55574,-86.822810000000004,,
1288,2305,24th St and 39th Ave N,,33.559080000000002,-86.823250000000002,,
1289,2306,24th St N and 39th Court N (IB),,33.561010000000003,-86.823009999999996,,
1290,2307,Daniel Payne Ct and Trax Dr,,33.561610000000002,-86.830259999999996,,
1291,2308,40th Ave W and Center St,,33.55894,-86.835139999999996,,
1292,2309,1st St W and 39th Ave,,33.557969999999997,-86.837440000000001,,
1293,2310,1st St W and 38th Ave,,33.556220000000003,-86.837590000000006,,
1294,2311,38th Ave W and 2nd St W (IB),,33.556109999999997,-86.839200000000005,,
1295,2312,38th Ave W and 4th St W,,33.556139999999999,-86.840710000000001,,
1296,2313,4th St W and 37th Ct W,,33.554839999999999,-86.84151,,
1297,2314,4th St W and 3rd St W,,33.55189,-86.842449999999999,,
1298,2315,4th St W and 35th Ave W,,33.550310000000003,-86.8429,,
1299,2316,4th St and 34th Ave W,,33.54954,-86.843190000000007,,
1300,2317,33rd Ave N and 16th St N,,33.550400000000003,-86.833669999999998,,
1301,2318,16th St N and 30th Ave N,,33.547600000000003,-86.832499999999996,,
1302,2319,16th St N and 27th Ave N,,33.544460000000001,-86.831199999999995,,
1303,2320,16th St N and 26th Ave N,,33.542999999999999,-86.830569999999994,,
1304,2321,16th St N and 24th Ave N,,33.54054,-86.829520000000002,,
1305,2322,16th St and Finley Blvd,,33.538510000000002,-86.828680000000006,,
1306,2323,16th St N and 19th Ave N,,33.53396,-86.826660000000004,,
1307,2324,16th St N and 16th Ct N,,33.531599999999997,-86.822040000000001,,
1308,2325,18th St N and 15th Ave N (IB),,33.530110000000001,-86.820800000000006,,
1309,2326,18th St N and 14th Ct N,,33.529249999999998,-86.819339999999997,,
1310,2327,14th Ct N and 19th Ave N,,33.529739999999997,-86.81823,,
1311,2328,19th St N and 14th Ave N (IB),,33.529269999999997,-86.817750000000004,,
1312,2329,19th St N and 13th Ave N,,33.527999999999999,-86.816879999999998,,
1342,2359,Gary Ave and 49th St,,33.489510000000003,-86.915769999999995,,
1346,2363,55th St and Ave E,,33.483139999999999,-86.911519999999996,,
1364,2381,Western Hills Mall (IB),,33.467120000000001,-86.915090000000006,,
1365,2382,Terrace Ct and Ave D,,33.470100000000002,-86.91507,,
1368,2385,66th St and Ave C (IB),,33.473489999999998,-86.914820000000006,,
1374,2391,Myron Massey Blvd and 55 St (IB),,33.480670000000003,-86.907070000000004,,
1375,2392,Myron Massey Blvd and 54th St (IB),,33.481470000000002,-86.907049999999998,,
1378,2395,55th St and Ave D,,33.483220000000003,-86.912800000000004,,
1379,2396,55th St and Ave C,,33.483249999999998,-86.914280000000005,,
1380,2397,Ave C and 52nd St (IB),,33.485819999999997,-86.914259999999999,,
1381,2398,Ave C and Valley Rd,,33.487209999999997,-86.915149999999997,,
1382,2399,Gary Ave and 51st St,,33.487830000000002,-86.915779999999998,,
1383,2400,Gary Ave and 49th St (IB),,33.489420000000003,-86.915570000000002,,
1411,2428,20th St S and 12th Ave S,,33.49933,-86.795810000000003,,
1412,2429,20th St S and 13th Ave S,,33.498609999999999,-86.795469999999995,,
1413,2430,20th St S and 14th Ave S,,33.49774,-86.794359999999998,,
1414,2431,R.A.J. Blvd and 16th Ave S,,33.496789999999997,-86.792919999999995,,
1415,2433,R Arrington Jr Blvd and Valley Ave,,33.488419999999998,-86.793149999999997,,
1416,2434,R.A.J. Blvd and Rosedale Dr,,33.485039999999998,-86.792060000000006,,
1417,2435,18th St S and 29th Ave S,,33.479649999999999,-86.791820000000001,,
1418,2436,18th St. S and Oxmoor Rd,,33.477370000000001,-86.791229999999999,,
1419,2437,Oxmoor Rd and Firefighter Ln,,33.477800000000002,-86.78989,,
1420,2438,Oxmoor Rd and Cook St.,,33.478299999999997,-86.788709999999995,,
1421,2439,Oxmoor Rd and Independence Dr.,,33.478549999999998,-86.787570000000002,,
1423,2441,BROOKWOOD MALL,,33.468240000000002,-86.775109999999998,,
1424,2442,Brookwood Blvd and Brookwood Med Cntr Dr,,33.46434,-86.774100000000004,,
1425,2443,BROOKWOOD HOSPITAL,,33.463410000000003,-86.775769999999994,,
1426,2444,Brookwood Mall and Verizon,,33.468530000000001,-86.774280000000005,,
1428,2446,Independence Dr. and Oxmoor Rd.,,33.478450000000002,-86.788569999999993,,
1429,2447,18th St S and 27th Ave,,33.483040000000003,-86.791579999999996,,
1430,2448,18th St S and Rosedale Dr,,33.484839999999998,-86.791640000000001,,
1431,2449,R.A.J. Blvd. and 21st Ave S,,33.48865,-86.793030000000002,,
1432,2450,14TH AVE S & 20TH ST,,33.497680000000003,-86.793970000000002,,
1433,2451,B'HAM ZOO,,33.489939999999997,-86.777460000000005,,
1434,2452,WESTERN SUPERMARKET MTN BROOK,,33.48489,-86.773719999999997,,
1435,2453,20TH ST & 6TH AVE S,,33.507109999999997,-86.800190000000001,,
1436,2454,6th Ave S and 23rd St S,,33.50891,-86.796589999999995,,
1437,2455,University Blvd and 24th St S,,33.507179999999998,-86.793689999999998,,
1438,2456,University Blvd and 25th St S,,33.507869999999997,-86.792190000000005,,
1439,2457,ST VINCENT HOSPITAL,,33.509079999999997,-86.789879999999997,,
1440,2458,University Blvd and 28th St S,,33.509860000000003,-86.787719999999993,,
1441,2459,10th Ave S and 28th St S,,33.508659999999999,-86.786299999999997,,
1442,2460,10th Ave S and 27th Pl S,,33.50723,-86.787589999999994,,
1443,2461,26th Street South and 11th Street South,,33.50394,-86.787739999999999,,
1444,2462,26th St S and Highland Ave,,33.503,-86.785920000000004,,
1472,2490,11th Ave S and 26th St S,,33.503999999999998,-86.787630000000007,,
1473,2491,St Vincent's Hospital (IB),,33.507019999999997,-86.787639999999996,,
1474,2492,10th Ave S and 28th St S (IB),,33.508459999999999,-86.786240000000006,,
1475,2493,28th St S and University Blvd,,33.509540000000001,-86.78716,,
1476,2494,3rd Ave N and 2nd St N,,33.506909999999998,-86.832999999999998,,
1477,2495,3rd Ave W and Center St,,33.50694,-86.835930000000005,,
1478,2496,3rd Ave W and 1st St W,,33.506880000000002,-86.837410000000006,,
1479,2497,3rd Ave W and 3rd St,,33.506459999999997,-86.840209999999999,,
1480,2498,3rd Ave W and 6th St W,,33.50573,-86.845140000000001,,
1481,2499,3rd Ave W and Princeton Pkwy,,33.50544,-86.8489,,
1482,2500,3rd Ave W and 11th St W,,33.505270000000003,-86.854619999999997,,
1483,2501,3rd Ave W and 15th St,,33.505180000000003,-86.861149999999995,,
1484,2502,3rd Ave W and 17th St,,33.50515,-86.864279999999994,,
1485,2503,3rd Ave and Fayette Ave,,33.504280000000001,-86.86721,,
1486,2504,3rd Ave W and 30th St,,33.502839999999999,-86.86909,,
1487,2505,Bess Rd and Lomb Ave,,33.50159,-86.870639999999995,,
1488,2507,Bessemer Rd and Ensley Ave (RTE 45),,33.496659999999999,-86.877200000000002,,
1489,2508,Bess Rd and Ave V,,33.49541,-86.878910000000005,,
1490,2509,Bessemer Rd and Ave U,,33.494309999999999,-86.880369999999999,,
1491,2510,Bess Rd and Ave T,,33.493189999999998,-86.88185,,
1492,2511,Bessemer Rd and Court S,,33.491999999999997,-86.883449999999996,,
1493,2512,Bess Rd and Terrace R,,33.490740000000002,-86.885080000000002,,
1494,2513,Bess Rd and Ave Q,,33.489519999999999,-86.886629999999997,,
1495,2514,Bessemer Rd and Ave P,,33.487380000000002,-86.888660000000002,,
1496,2515,Bessemer Rd and Court O,,33.485970000000002,-86.889979999999994,,
1497,2516,Bess Rd and Ave O,,33.483640000000001,-86.892169999999993,,
1498,2517,Bessemer Rd and Ave N,,33.482759999999999,-86.893109999999993,,
1499,2518,Vinesville Rd and Terrace M,,33.4818,-86.894540000000006,,
1500,2519,Vinesville Rd and Court M,,33.481299999999997,-86.895679999999999,,
1501,2520,Vinesville Rd and Ave L,,33.480629999999998,-86.897599999999997,,
1502,2521,Vinesville Rd and Terrace J,,33.480130000000003,-86.899180000000001,,
1503,2522,Vinesville Rd and Court I,,33.479190000000003,-86.90213,,
1504,2523,Vinesville Rd Nearside Court H,,33.478380000000001,-86.904139999999998,,
1505,2524,Vinesville Rd Nearside 61st St (St.Mary),,33.476469999999999,-86.906360000000006,,
1506,2525,MLK Jr Blvd and 65th St,,33.473170000000003,-86.908510000000007,,
1507,2526,MLK Jr Blvd and Terrace Ct,,33.469540000000002,-86.914100000000005,,
1509,2528,MLK Jr Blvd and Aaron Aronov Dr (Rally's,,33.46443,-86.913229999999999,,
1510,2529,Aaron Aronov Dr and Bessemer Super Hwy,,33.46302,-86.912099999999995,,
1511,2530,Bessemer Super Hwy and Grant St,,33.45937,-86.915970000000002,,
1512,2531,Bessemer Super Hwy and JCCEO Bldg,,33.453600000000002,-86.922079999999994,,
1513,2532,BESSEMER SUPER HWY VALHALLA,,33.44988,-86.925970000000007,,
1514,2533,Bessemer Super Hwy and Wilkes Blvd,,33.447240000000001,-86.928210000000007,,
1515,2534,Bessemer Super Hwy and Roosevelt St,,33.430709999999998,-86.941609999999997,,
1516,2535,Bessemer Super Hwy and Harmer St,,33.428640000000001,-86.943309999999997,,
1517,2536,9th Ave and Harmony Dr,,33.426850000000002,-86.944789999999998,,
1518,2537,Bessemer Super Hwy and 33rd St,,33.421169999999996,-86.949330000000003,,
1519,2538,Bessemer Super Hwy and 28th St,,33.417149999999999,-86.952579999999998,,
1520,2539,Bessemer Super Hwy and 27th St,,33.41572,-86.953710000000001,,
1521,2540,Bessemer Super Hwy and 24th St,,33.412419999999997,-86.956360000000004,,
1522,2541,Bessemer Super Hwy and 22nd St,,33.410209999999999,-86.958110000000005,,
1523,2542,4TH AVE & 18TH ST BESSEMER,,33.401629999999997,-86.955920000000006,,
1524,2543,4th Ave and 13th St,,33.396749999999997,-86.959900000000005,,
1525,2544,4TH AVE & 11TH ST JONESBORO,,33.394530000000003,-86.961699999999993,,
1526,2545,4TH AVE & 9TH ST JONESBORO,,33.391950000000001,-86.962999999999994,,
1527,2546,9th St Nearside 2nd Ave,,33.391030000000001,-86.961389999999994,,
1528,2547,9th St Nearside Alabama Ave,,33.389919999999996,-86.959450000000004,,
1529,2548,9th St Nearside Hall Ave,,33.38917,-86.95814,,
1530,2549,9th St Nearside Clarendon,,33.387810000000002,-86.955709999999996,,
1531,2550,9th St Nearside Dartmouth,,33.386620000000001,-86.953659999999999,,
1532,2551,Fairfax Nearside 8th St,,33.38496,-86.952529999999996,,
1533,2552,Fairfax Nearside Bryant St,,33.382449999999999,-86.954899999999995,,
1534,2553,Fairfax Nearside Center St,,33.380839999999999,-86.956149999999994,,
1535,2554,Fairfax Nearside Ray St,,33.37912,-86.956980000000001,,
1536,2555,FAIRFAX & OWENS,,33.376359999999998,-86.9589,,
1537,2556,Owen Ave and Ray St,,33.378970000000002,-86.959000000000003,,
1538,2557,Owen Ave Nearside Center St,,33.380899999999997,-86.959069999999997,,
1539,2558,Center St Nearside Ash Ave,,33.380969999999998,-86.961280000000002,,
1540,2559,Center St Nearside Norwood Ave,,33.380960000000002,-86.962270000000004,,
1541,2560,Center St Nearside Chestnut Ave,,33.380989999999997,-86.965530000000001,,
1542,2561,1st St Farside Alabama Ave,,33.381329999999998,-86.966579999999993,,
1543,2562,1st St N and 2nd Ave N,,33.382309999999997,-86.968360000000004,,
1544,2563,4th Ave Nearside Lakeridge Ave,,33.383969999999998,-86.970010000000002,,
1545,2564,4th St Nearside 3rd St,,33.385570000000001,-86.968729999999994,,
1546,2565,4th St Nearside 5th St,,33.38758,-86.967160000000007,,
1547,2566,4th St Nearside 7th St,,33.38955,-86.965540000000004,,
1548,2567,4th Ave N and 10th St,,33.393250000000002,-86.962509999999995,,
1549,2568,4th St Nearside 11th St,,33.394309999999997,-86.961619999999996,,
1550,2569,4th St Nearside 13th St,,33.396479999999997,-86.959890000000001,,
1551,2570,4th Ave & 16th St Bessemer,,33.399729999999998,-86.957229999999996,,
1552,2571,4th Ave & 17th St Bessemer,,33.400570000000002,-86.955849999999998,,
1553,2572,17th St & 1st Ave Bessemer,,33.399610000000003,-86.952839999999995,,
1554,2573,1ST AVE & 19TH ST BESSEMER,,33.401260000000001,-86.951480000000004,,
1555,2574,19th St and 2nd Ave No,,33.402000000000001,-86.952299999999994,,
1556,2575,19th St N and 9th Ave N,,33.406660000000002,-86.960480000000004,,
1557,2576,9th St and 23rd St,,33.411000000000001,-86.9572,,
1558,2577,9th Ave N and 24th St,,33.412100000000002,-86.956339999999997,,
1559,2578,9th St and 26th St,,33.414279999999998,-86.954589999999996,,
1560,2579,9th St and 28th St,,33.416460000000001,-86.952799999999996,,
1561,2580,9th St and 32nd St,,33.420450000000002,-86.949560000000005,,
1562,2581,9th St and 33rd St,,33.421199999999999,-86.949010000000001,,
1563,2582,9th St and 5th St,,33.427660000000003,-86.943709999999996,,
1564,2583,9th St and Selma Rd,,33.430349999999997,-86.941509999999994,,
1565,2584,9th St and Brewer Ave,,33.434620000000002,-86.938050000000004,,
1566,2585,Bessemer Super Hwy and Jesse Owens Ave,,33.439579999999999,-86.934100000000001,,
1567,2586,Bessemer Super Hwy and Malcolm Ave,,33.441630000000004,-86.932429999999997,,
1568,2587,Bessemer Super Hwy and Palmer Ave,,33.444189999999999,-86.930329999999998,,
1569,2588,Bess Super Hwy and Wilkes Blvd (IB),,33.446869999999997,-86.928229999999999,,
1570,2589,Bess Super Hwy and Cairo Ave,,33.448729999999998,-86.92662,,
1571,2590,Bess Super Hwy and Jcceo (IB),,33.453009999999999,-86.922269999999997,,
1572,2591,Bess Super Hwy and Grant St (IB),,33.458750000000002,-86.916259999999994,,
1573,2592,Bessemer Super Hwy & Aaron Aronov Dr,,33.464129999999997,-86.912099999999995,,
1577,2596,Vinesville Rd Nearside Court I,,33.478839999999998,-86.902820000000006,,
1578,2597,Vinesville Rd and Monte Sano Rd,,33.479430000000001,-86.900880000000001,,
1579,2598,Vinesville Rd and Ave K,,33.480200000000004,-86.898409999999998,,
1580,2599,Vinesville Rd and Court M,,33.481050000000003,-86.895660000000007,,
1581,2600,Vinesville Rd and Bessemer Rd,,33.481900000000003,-86.893429999999995,,
1582,2601,Bessemer Rd and Ave O,,33.483179999999997,-86.892250000000004,,
1583,2602,Bess Rd and Court O (IB),,33.485570000000003,-86.890039999999999,,
1584,2603,Bess Rd and Ave P Ens,,33.487009999999998,-86.8887,,
1585,2604,Bess Rd and Ave R,,33.488729999999997,-86.887079999999997,,
1586,2605,Bessemer Rd and Terrace R,,33.490349999999999,-86.885210000000001,,
1587,2606,Bess Rd and Ave S,,33.490989999999996,-86.884349999999998,,
1588,2607,Bess Rd and Terrace S,,33.492249999999999,-86.882649999999998,,
1589,2608,Bessemer Rd and Ave T,,33.49288,-86.881829999999994,,
1590,2609,Bessemer Rd and Ave V,,33.494950000000003,-86.879130000000004,,
1591,2610,Bessemer Rd and Ensley Ave (45 IB),,33.496270000000003,-86.877350000000007,,
1592,2611,Bessemer Rd and Lomb Ave,,33.501550000000002,-86.870379999999997,,
1593,2612,3rd Ave W and Fayette St,,33.503959999999999,-86.867360000000005,,
1594,2613,3rd Ave W and 15th Street West,,33.505020000000002,-86.861360000000005,,
1595,2614,3rd Ave West and 11th Street West,,33.505119999999998,-86.854879999999994,,
1596,2615,3rd Ave W and 9th St,,33.505200000000002,-86.853260000000006,,
1597,2616,3rd Ave W and Princeton Pkwy (IB),,33.505270000000003,-86.849590000000006,,
1598,2617,3rd Ave W and 6th St W,,33.505510000000001,-86.845209999999994,,
1599,2618,3rd Ave W and 3rd St W,,33.506219999999999,-86.840450000000004,,
1600,2619,3RD AVE & CENTER ST,,33.506720000000001,-86.836709999999997,,
1601,2620,3rd Ave N and 4th St,,33.50667,-86.830079999999995,,
1602,2621,3rd Ave N and 5th St,,33.506639999999997,-86.828580000000002,,
1603,2622,3rd Ave N and 7th St,,33.507660000000001,-86.824839999999995,,
1613,2633,Greensprings Ave and Goldwire St,,33.48319,-86.835030000000003,,
1614,2634,DENNISON & MARTIN LUTHER KING,,33.479889999999997,-86.839579999999998,,
1615,2635,MLK Jr Dr and Mason Ave,,33.476959999999998,-86.839609999999993,,
1616,2636,MLK Jr Dr and Montevallo Rd,,33.46884,-86.842389999999995,,
1617,2637,Mayfield Ave and 12th Pl,,33.468890000000002,-86.844729999999998,,
1618,2638,Mayfield Ave and 13th Way SW,,33.468960000000003,-86.848079999999996,,
1619,2639,Mayfield Ave and 14th St SW,,33.468980000000002,-86.849199999999996,,
1620,2640,14th Pl SW and 1445 Address,,33.47184,-86.851849999999999,,
1621,2641,ARTHUR SHORES & HUGH DENMAN,,33.471600000000002,-86.853890000000007,,
1622,2642,16th St W and 1562 Address,,33.471440000000001,-86.855909999999994,,
1623,2643,Jackson Ave and 16th St SW,,33.468319000000001,-86.856049999999996,,
1624,2644,Jackson Ave and 15th St SW,,33.46801,-86.852770000000007,,
1625,2645,Jackson Ave and 14th Way SW,,33.468020000000003,-86.851709999999997,,
1626,2646,Matt Leonard Dr and 15th St,,33.465539999999997,-86.852260000000001,,
1627,2647,Matt Leonard Dr and 16th Pl SW,,33.464219999999997,-86.855549999999994,,
1628,2648,Matt Leonard Dr and 16th Way SW,,33.461939999999998,-86.858140000000006,,
1629,2649,Matt Leonard Dr and 17th Pl SW,,33.459719999999997,-86.860789999999994,,
1630,2650,Matt Leonard Dr and Ishkooda Rd,,33.458440000000003,-86.862279999999998,,
1631,2651,Tempest Dr and Century Dr,,33.459499999999998,-86.867450000000005,,
1632,2652,ELECTRA & GOLDENPINES,,33.456780000000002,-86.86815,,
1633,2653,Electra Dr and Tempest Dr,,33.456609999999998,-86.866169999999997,,
1634,2655,Matt Leonard Dr and 17th Place SW,,33.459539999999997,-86.860910000000004,,
1635,2656,Matt Leonard Dr and 16th Way SW (IB),,33.461849999999998,-86.858149999999995,,
1636,2657,Matt Leonard Dr and 16th Place SW,,33.46407,-86.855440000000002,,
1637,2658,Matt Leonard Dr and 15th St,,33.46537,-86.852199999999996,,
1642,2663,Hugh Denman and Arthur Shores,,33.471679999999999,-86.853849999999994,,
1645,2666,Mayfield Ave and 14th St SW,,33.468919999999997,-86.849429999999998,,
1646,2667,Mayfield Ave and 13th Way SW (IB),,33.468890000000002,-86.848320000000001,,
1647,2668,Mayfield Ave and 13th St SW,,33.468859999999999,-86.846090000000004,,
1648,2669,Mayfield Ave and Montevallo Rd,,33.468719999999998,-86.842299999999994,,
1649,2670,MLK Jr Dr and Nassau Ave,,33.475859999999997,-86.839870000000005,,
1650,2671,Martin Luther King Dr and Mason Ave (IB),,33.476730000000003,-86.839470000000006,,
1726,2776,Lane Park Rd and Apt Complex,,33.490090000000002,-86.774270000000001,,
1727,2777,Fairway Dr and Somerset Circle (IB),,33.495820000000002,-86.776979999999995,,
1730,2780,FOXGLEN & WESTCHESTER,,33.662309999999998,-86.690129999999996,,
1731,2781,Westchester Dr and 1st St NW,,33.661969999999997,-86.687830000000005,,
1732,2782,Westchester Dr and Gallant Dr,,33.662460000000003,-86.685580000000002,,
1733,2783,Westchester Dr and Centerpoint Pkwy,,33.662849999999999,-86.682199999999995,,
1735,2785,6th Ave N and 17th St N,,33.516599999999997,-86.812870000000004,,
1736,2786,Highland Ave and 11th Ct S (Western),,33.50141,-86.790310000000005,,
1737,2787,20th St S and 7th Ave S,,33.506329999999998,-86.800030000000007,,
1739,2789,Centerpoint Parkway and Weschester Drive,,33.66283,-86.682360000000003,,
1740,2790,Westchester Drive and Magnolia Court Apt,,33.662739999999999,-86.685550000000006,,
1741,2791,Westchester Drive and 1st St NW,,33.662190000000002,-86.687489999999997,,
1742,2792,WESTCHESTER AND FOXGLEN,,33.662430000000001,-86.689970000000002,,
1743,2793,BJCC SHERATON HOTEL UPTOWN DISTRICT,,33.524790000000003,-86.810540000000003,,
1744,2794,8th Ave North and Bham Museum of Art,,33.521729999999998,-86.810329999999993,,
1745,2795,BIRMINGHAM CITY HALL,,33.520339999999997,-86.810649999999995,,
1746,2796,20th St N and 6th Ave N,,33.518610000000002,-86.808490000000006,,
1748,2798,20th St N and 3rd Ave N,,33.516509999999997,-86.807159999999996,,
1749,2799,20th St N and 2nd Ave N,,33.51585,-86.806690000000003,,
1750,2800,20th St N and 1st Ave N,,33.514710000000001,-86.80592,,
1755,2806,20th St and Highland Ave,,33.49944,-86.795609999999996,,
1756,2807,20th St and 1st Ave N,,33.515149999999998,-86.806060000000002,,
1757,2808,20th St and 2nd Ave N,,33.515810000000002,-86.8065,,
1758,2809,20th St N and 3rd Ave N,,33.516640000000002,-86.807069999999996,,
1759,2810,20th St and 4th Ave N,,33.517699999999998,-86.80771,,
1760,2811,20th St N and 5th Ave N,,33.519019999999998,-86.808610000000002,,
1761,2812,City Hall Crosswalk,,33.520429999999998,-86.810590000000005,,
1762,2813,8th Ave N and Linn Park,,33.521410000000003,-86.810590000000005,,
1770,2821,24th St N and 2nd Ave N,,33.517940000000003,-86.801079999999999,,
1775,2826,5TH AVE N & 17TH ST N,,33.515819999999998,-86.81277,,
1782,2833,11th Ave and 19th St S,,33.499830000000003,-86.797809999999998,,
1791,2842,University Blvd and 24th St S (RTE 44 an,,33.507489999999997,-86.793539999999993,,
1792,2843,University Blvd and 23rd St S,,33.506839999999997,-86.794839999999994,,
1818,2870,Cotton Ave and 7th Ave SW,,33.497810000000001,-86.843209999999999,,
1824,2876,Center St and Greensprings Ave,,33.483440000000002,-86.830770000000001,,
1844,2897,Columbiana Rd and Greensprings Hwy,,33.467080000000003,-86.821629999999999,,
1845,2898,Hwy 280 Near Mtn Brook Center,,33.480089999999997,-86.775199999999998,,
1846,2899,Summit Pkwy and Summit Place,,33.447749999999999,-86.730649999999997,,
1847,2900,THE SUMMIT,,33.449269999999999,-86.729119999999995,,
1848,2901,MARRIOTT GRANDVIEW,,33.436509999999998,-86.718540000000004,,
1849,2902,Grandview Pkwy Near Crowne Plaza Apts.,,33.440530000000003,-86.719560000000001,,
1850,2903,Grandview Pkwy and Hwy 280,,33.43873,-86.72372,,
1851,2904,Colonnade Pkwy and Blue Lake Dr,,33.441859999999998,-86.727329999999995,,
1852,2905,COLONNADE,,33.439010000000003,-86.730450000000005,,
1853,2906,Colonnade Pkwy & Comfort Inn,,33.435090000000002,-86.73639,,
1854,2907,Colonnade Pkwy and Cahaba River Rd,,33.432879999999997,-86.737409999999997,,
1855,2908,Cahaba River Rd and Old 280 Ct (Fire Sta,,33.428699999999999,-86.730609999999999,,
1856,2909,CHICK-FIL-A,,33.428229999999999,-86.707999999999998,,
1857,2910,Hwy 280 and Inverness Pkwy,,33.42398,-86.702470000000005,,
1858,2911,Hwy 280 and Inverness Plaza,,33.420119999999997,-86.696370000000002,,
1859,2912,Valleydale Rd and Inverness Corner Shopp,,33.418410000000002,-86.69444,,
1860,2913,Hwy 280 and Meadowbrook Rd,,33.417819999999999,-86.686570000000003,,
1861,2914,HWY 280 & SUPER WALMART,,33.421379999999999,-86.676959999999994,,
1862,2915,Hwy 280 and Cahaba Beach Rd (Home Depot),,33.420639999999999,-86.695070000000001,,
1863,2916,Hwy 280 Near Chipotle Mexican Grill,,33.422330000000002,-86.698629999999994,,
1864,2917,Chick-Fil-A,,33.4283,-86.707989999999995,,
1865,2918,Hwy 280 and Grandview Parkway,,33.438650000000003,-86.723519999999994,,
1866,2919,Grandview Pkwy Near Crowne Plaza Apts,,33.44041,-86.719949999999997,,
1867,2920,Marriot,,33.436900000000001,-86.718500000000006,,
1868,2922,Cahaba River Rd and Colony Park Dr (Chev,,33.428510000000003,-86.729640000000003,,
1869,2923,Cahaba River Rd and Colonnade Pkwy,,33.433450000000001,-86.737989999999996,,
1870,2924,Colonnade Pkwy and Blue Lake Dr (IB),,33.434919999999998,-86.735619999999997,,
1871,2925,Colonnade Center,,33.437539999999998,-86.729789999999994,,
1872,2926,Colonnade Pkwy and Colonnade Dr,,33.441459999999999,-86.727419999999995,,
1873,2927,Hwy 280 and Green Valley Rd (Whole Foods,,33.459479999999999,-86.75273,,
1874,2928,Hwy 280 and Cherokee Rd,,33.470730000000003,-86.760810000000006,,
1875,2929,Hwy 280 and Brook Manor Dr (Mtn Brook Pl,,33.479550000000003,-86.773979999999995,,
1926,3016,Airport Hwy & Aviation Ave (Budget Rent-,,33.551740000000002,-86.7547,,
1930,3143,Oporto Madrid Near Pizza Hut,,33.529029999999999,-86.722127999999998,,
1931,3144,Oporto Madrid & Cooper Hill Rd,,33.526060000000001,-86.723770000000002,,
1947,3152,GEORGIA ROAD & KIMBERLY AVENUE,,33.541780000000003,-86.722300000000004,,
1948,3153,Kimberly Ave & 67th St S,,33.543810000000001,-86.722390000000004,,
1949,3154,Kimberly Ave & Joppa Ave,,33.54569,-86.722610000000003,,
1950,3155,Kimberly Ave & Joppa Ave (IB),,33.546080000000003,-86.722729999999999,,
1951,3156,Kimberly Ave & 67th St S (IB),,33.543370000000003,-86.722269999999995,,
1952,3157,KIMBERLY AVENUE & GEORGIA RD,,33.541519999999998,-86.722480000000004,,
1962,3165,Cotton Ave & 8th St SW,,33.496360000000003,-86.845889999999997,,
1963,3166,Cotton Ave & 8th St SW (IB),,33.496279999999999,-86.845659999999995,,
1964,3167,Academy Lane & Applebee's,,33.36477,-87.004099999999994,,
1965,3168,Lorna Rd & Rocky Ridge Ranch Rd,,33.38588,-86.794470000000004,,
1970,3171,SALVATION ARMY,,33.545259999999999,-86.823279999999997,,
1972,3172,Arkadelphia Rd & 11th Court (Chevron),,33.522829999999999,-86.84966,,
1974,3173,3rd Avenue & 19th Street North,,33.515819999999998,-86.807699999999997,,
2038,3238,30th St N and 41st Ct N,,33.565739000000001,-86.809303999999997,,
2039,3239,Brookwood Hospital IB,,33.463329999999999,-86.775727000000003,,
2041,3241,Aloft Homewood,,33.479410999999999,-86.789576999999994,,
2042,3242,29th Ave S and 18th St S,,33.479664,-86.790966999999995,,
2043,3243,Avenue K and 18th St S,,33.434986000000002,-86.915930000000003,,
2044,3244,5730 Avenue K,,33.425142000000001,-86.922044,,
2045,3245,5500 Avenue K,,33.422795000000001,-86.923479,,
2046,3246,Ave K and 3rd Place Bessemer,,33.420645,-86.925122999999999,,
2047,3247,Goston Barber Shop,,33.423999000000002,-86.922543000000005,,
2048,3248,J&J Pharmacy,,33.432614999999998,-86.917820000000006,,
2049,3249,West Brownsville Park,,33.442805999999997,-86.909520999999998,,
2050,3250,MLK & 61st St Fairfield,,33.476461,-86.906351999999998,,
2051,3251,6610 MLK Dr,,33.471629,-86.910242999999994,,
2052,3252,MLK & Terrace Ct,,33.469586999999997,-86.914056000000002,,
2053,3253,5130 Bessemer Hwy,,33.443227,-86.931550000000001,,
2054,3254,5000 Bessemer Hwy,,33.441676000000001,-86.932758000000007,,
2055,3255,4500 Bessemer Hwy,,33.436073999999998,-86.937296000000003,,
2056,3256,717 66th St Ensley,,33.471769999999999,-86.909667999999996,,
2057,3257,MLK & 61st St Fairfield IB,,33.476283000000002,-86.906345999999999,,
2058,3258,Cherry Ave Citgo,,33.541469999999997,-86.871746000000002,,
2059,3259,901 Forestdale Blvd,,33.553193,-86.885097000000002,,
2060,3260,1421 Forestdale Blvd,,33.563797999999998,-86.894676000000004,,
2061,3261,Piggly Wiggly Forestdale,,33.569248000000002,-86.897988999999995,,
2062,3262,Arnett St Forestdale,,33.582138,-86.921623999999994,,
2063,3263,1984 Veterans Mem Dr,,33.572856000000002,-86.905924999999996,,
2064,3264,Walmart Forestdale,,33.580897,-86.923598999999996,,
2065,3265,Shell Station Forestdale,,33.568143999999997,-86.898470000000003,,
2066,3266,Los Rancheros Forestdale,,33.563166000000002,-86.894497000000001,,
2067,3267,Forestdale Square,,33.559063000000002,-86.891242000000005,,
2068,3268,Fresenius Kidney Care,,33.553936999999998,-86.886719999999997,,
2069,3269,North Pratt Chevron,,33.540213999999999,-86.870849000000007,,
2123,3324,Regions Bank Valley Rd,,33.479908000000002,-86.923980999999998,,
2125,3326,Dollar Tree Aronov Ave,,33.470897000000001,-86.920991000000001,,
2128,3329,Miles College,,33.480992999999998,-86.907053000000005,,
2133,3334,City Hall Fairfield,,33.490589,-86.915565999999998,,
2143,3071,Goldwire St and 2nd St SW,,33.495463000000001,-86.835285999999996,,
2144,3344,Tarrant City Shopping Center,,33.589961000000002,-86.766358999999994,,
2145,3345,Food Giant,,33.609650000000002,-86.963814999999997,,
2146,3346,Brooklere Pharmacy,,33.589478999999997,-86.936902000000003,,
2148,3348,38th St S & 8th Ave S,,33.515819,-86.774595000000005,,
2149,3349,38th St S and 37th St S,,33.517097,-86.774811,,
2150,3350,34th St S and Clairmont Ave,,33.513463000000002,-86.779722000000007,,
2151,3311,Ave F & 55th St,,33.483220000000003,-86.909349000000006,,
2152,3352,Myron Massey & 66th St,,33.472707999999997,-86.910191999999995,,
2153,3353,Myron Massey & 64th Street,,33.474235999999998,-86.909087,,
2154,3354,Court F & Jerry Coleman Street,,33.475532999999999,-86.909486999999999,,
2155,3355,Myron Massey Blvd & 61st St,,33.476790999999999,-86.907409000000001,,
2156,3356,AMAZON POWDER PLANT ROAD,,33.376122000000002,-87.011263,,
